name,latitude,longitude,primary_fuel,state,normalized_county,Fips
1515 S Caron Road,41.9084,-89.0466,Gas,Illinois,Ogle,17141
491 E 48th Street,42.7553,-86.0853,Gas,Michigan,Ottawa,26139
500MW CC,40.7889,-73.9069,Gas,New York,New York,36061
59th Street,40.7713,-73.9912,Gas,New Jersey,Hudson,34017
A L Pierce,41.4482,-72.8349,Gas,Connecticut,New Haven,9009
ABC Coke,33.5828,-86.7799,Gas,Alabama,Jefferson,1073
AES Alamitos LLC,33.7688,-118.1009,Gas,California,Orange,6059
AES Huntington Beach LLC,33.6439,-117.9792,Gas,California,Orange,6059
AES Redondo Beach LLC,33.8504,-118.395,Gas,California,Los Angeles,6037
AL Sandersville LLC,33.1189,-82.8608,Gas,Georgia,Washington,13303
AMEA Peaking,33.1661,-86.2825,Gas,Alabama,Talladega,1121
ANP Bellingham Energy Project,42.1106,-71.4535,Gas,Massachusetts,Norfolk,25021
ANP Blackstone Energy Project,42.0599,-71.5158,Gas,Massachusetts,Worcester,25027
APG Combined Heat and Power Plant,39.3975,-76.2991,Gas,Maryland,Harford,24025
AT&T Anaheim,33.8364,-117.9169,Gas,California,Orange,6059
AT&T Holger,37.4176,-121.9445,Gas,California,Santa Clara,6085
Aberdeen CT,45.4299,-98.494,Gas,South Dakota,Brown,46013
Acadia Energy Center,30.4286,-92.4131,Gas,Louisiana,St Landry,22097
Ada Cogeneration LP,42.9627,-85.4941,Gas,Michigan,Kent,26081
Adkins Energy LLC,42.3622,-89.8036,Gas,Illinois,Stephenson,17177
Adobe San Jose,37.3306,-121.8931,Gas,California,Santa Clara,6085
Aera San Ardo Cogen Facility,35.9533,-120.86,Gas,California,San Luis Obispo,6079
Afton Generating Station,32.1142,-106.8465,Gas,New Mexico,Dona Ana,35013
Agnews Power Plant,37.4058,-121.9272,Gas,California,Santa Clara,6085
Agrium Kenai Nitrogen Operations,60.6732,-151.3784,Gas,Alaska,Kenai Peninsula,2122
Agua Fria,33.5561,-112.2153,Gas,Arizona,Maricopa,4013
Agua Mansa Power Plant,34.0414,-117.3603,Gas,California,Riverside,6065
Air Products Port Arthur,29.8665,-93.9651,Gas,Texas,Jefferson,48245
Akron Recycle Energy Plant,41.0733,-81.5306,Gas,Ohio,Summit,39153
Alameda,37.7886,-122.2889,Gas,California,Alameda,6001
Alamosa,37.4594,-105.8947,Gas,Colorado,Alamosa,8003
Albany Medical Ctr Cogen Plant,42.655,-73.7777,Gas,New York,Albany,36001
Alden Bailey Power Plant,46.1584,-123.406,Gas,Washington,Wahkiakum,53069
Algodones,35.3844,-106.4642,Gas,New Mexico,Sandoval,35043
Algonquin Power Sanger LLC,36.6842,-119.5522,Gas,California,Fresno,6019
Algonquin Windsor Locks,41.9227,-72.6255,Gas,Connecticut,Hartford,9003
Allegany Cogen,42.5027,-78.0686,Gas,New York,Allegany,36003
Allegheny Energy Units 3 4 & 5,40.5453,-79.7686,Gas,Pennsylvania,Westmoreland,42129
Alliance Refinery,29.6833,-89.975,Gas,Louisiana,Jefferson,22051
Alliant Energy Neenah,44.1936,-88.5064,Gas,Wisconsin,Winnebago,55139
Alliant SBG 9802 Toyota,42.0277,-91.7111,Gas,Iowa,Linn,19113
Almond Power Plant,37.5744,-120.985,Gas,California,Stanislaus,6099
Alpaca,41.6631,-76.8056,Gas,Pennsylvania,Bradford,42015
Alpine Power Plant,45.0637,-84.8253,Gas,Michigan,Otsego,26137
Alsey,39.5698,-90.436,Gas,Illinois,Scott,17171
AltaGas Pomona Energy Inc.,34.0594,-117.7742,Gas,California,Los Angeles,6037
AltaGas Ripon Energy Inc.,37.7325,-121.116,Gas,California,San Joaquin,6077
Amalgamated Sugar LLC Nampa,43.6058,-116.5753,Gas,Idaho,Canyon,16027
Amazon San Bernardino,34.0884,-117.2458,Gas,California,San Bernardino,6071
American Gypsum Cogeneration,39.6486,-106.9494,Gas,Colorado,Eagle,8037
Ames Electric Services Power Plant,42.0258,-93.6089,Gas,Iowa,Story,19169
Amherst College Co Gen,42.3717,-72.5122,Gas,Massachusetts,Hampshire,25015
Anadarko Plant,35.0847,-98.23,Gas,Oklahoma,Caddo,40015
Anaheim GT,33.8535,-117.8563,Gas,California,Orange,6059
Anchorage 1,61.2221,-149.8661,Gas,Alaska,Anchorage,2020
Anclote,28.1844,-82.7886,Gas,Florida,Pasco,12101
Anderson,40.0529,-85.7389,Gas,Indiana,Madison,18095
Androscoggin Energy Center,44.5063,-70.2423,Gas,Maine,Franklin,23007
Angus Anson,43.6035,-96.6356,Gas,South Dakota,Minnehaha,46099
Anheuser-Busch Jacksonville,30.4342,-81.6454,Gas,Florida,Duval,12031
Anheuser-Busch St Louis,38.5978,-90.2107,Gas,Missouri,St Louis,29189
Animas,36.7251,-108.192,Gas,New Mexico,San Juan,35045
Ansley,41.2892,-99.3863,Gas,Nebraska,Custer,31041
Anson County Generation Facility,34.9687,-79.9217,Gas,North Carolina,Richmond,37153
Antelope Station,33.865,-101.8433,Gas,Texas,Lubbock,48303
Anthony,37.1517,-98.0311,Gas,Kansas,Harper,20077
Apex Generating Station,36.416,-114.9609,Gas,Nevada,Clark,32003
Arapahoe Combustion Turbine Project,39.6692,-105.0018,Gas,Colorado,Arapahoe,8005
ArcelorMittal Burns Harbor,41.635,-87.1387,Gas,Indiana,Porter,18127
ArcelorMittal Indiana Harbor West,41.6638,-87.4523,Gas,Indiana,Lake,18089
ArcelorMittal Warren,41.2119,-80.8176,Gas,Ohio,Trumbull,39155
Arcelormittal Cleveland Inc,41.4739,-81.6728,Gas,Ohio,Cuyahoga,39035
Archbald Power Station,41.485,-75.5406,Gas,Pennsylvania,Lackawanna,42069
Archer Daniels Midland Peoria,40.6772,-89.6049,Gas,Illinois,Peoria,17143
Archer Daniels Midland Southport,33.9397,-77.9905,Gas,North Carolina,Brunswick,37019
Arizona State University CHP,33.4172,-111.9283,Gas,Arizona,Maricopa,4013
Arkalon Ethanol LLC,37.1106,-100.8036,Gas,Kansas,Seward,20175
Arlington Valley Energy Facility,33.3417,-112.8897,Gas,Arizona,Maricopa,4013
Armstrong,40.63800000000001,-79.3517,Gas,Pennsylvania,Westmoreland,42129
Arsenal Hill,32.5181,-93.7611,Gas,Louisiana,Caddo,22017
Arthur Kill Generating Station,40.5916,-74.2,Gas,New York,Richmond,36085
Arthur Von Rosenberg,29.257,-98.384,Gas,Texas,Bexar,48029
Arvada,44.69,-106.1092,Gas,Wyoming,Johnson,56019
Arvah B Hopkins,30.4522,-84.4,Gas,Florida,Gadsden,12039
Ascend Performance Materials Texas Inc.,29.2558,-95.2103,Gas,Texas,Brazoria,48039
Asheville,35.4731,-82.5417,Gas,North Carolina,Buncombe,37021
Ashtabula,41.89,-80.7612,Gas,Ohio,Ashtabula,39007
Astoria Energy,40.7825,-73.8964,Gas,New York,Queens,36081
Astoria Energy II,40.7813,-73.8966,Gas,New York,Queens,36081
Astoria Gas Turbines,40.787,-73.9048,Gas,New York,Queens,36081
Astoria Generating Station,40.7877,-73.9126,Gas,New York,New York,36061
Athens Generating Plant,42.2728,-73.8492,Gas,New York,Greene,36039
Atlantic,41.409,-95.0,Gas,Iowa,Cass,19029
Attala,33.0147,-89.6753,Gas,Mississippi,Attala,28007
Auburn,40.3883,-95.8464,Gas,Nebraska,Nemaha,31127
Auburn State Street,42.9278,-76.5921,Gas,New York,Cayuga,36011
Auburndale Peaker Energy Center,28.0535,-81.8059,Gas,Florida,Polk,12105
Audrain Generating Station,39.3092,-91.5369,Gas,Missouri,Audrain,29007
Augusta Electric Plant No 1,37.6785,-96.9719,Gas,Kansas,Butler,20015
Augusta Electric Plant No 2,37.6861,-96.965,Gas,Kansas,Butler,20015
Axiall Natrium Plant,39.7475,-80.8547,Gas,West Virginia,Wetzel,54103
Axiall Plaquemine,30.2586,-91.185,Gas,Louisiana,Iberville,22047
B Braun Medical,33.6887,-117.8348,Gas,California,Orange,6059
BASF Freeport Works,29.002,-95.394,Gas,Texas,Brazoria,48039
BP Carson Refinery,33.8153,-118.2358,Gas,California,Los Angeles,6037
BYUI Central Energy Facility,43.8169,-111.7858,Gas,Idaho,Madison,16065
Baconton Power Plant,31.3869,-84.08,Gas,Georgia,Dougherty,13095
Badger Creek Limited,35.4837,-119.0299,Gas,California,Kern,6029
Baptist Medical Center,30.3145,-81.6627,Gas,Florida,Duval,12031
Barber Creek,43.7219,-105.7689,Gas,Wyoming,Campbell,56005
Barney M Davis,27.6064,-97.3117,Gas,Texas,Nueces,48355
Barre Peaker,33.8073,-117.9832,Gas,California,Orange,6059
Barrow,71.292,-156.7786,Gas,Alaska,North Slope,2185
Barry,31.0069,-88.0103,Gas,Alabama,Mobile,1097
Basin Creek Plant,45.9293,-112.5194,Gas,Montana,Silver Bow,30093
Bastrop Energy Center,30.1458,-97.55,Gas,Texas,Travis,48453
Batavia Power Plant,42.9828,-78.1592,Gas,New York,Genesee,36037
Batesville Generation Facility,34.3356,-89.9275,Gas,Mississippi,Panola,28107
Battle Creek Mill,42.3221,-85.2043,Gas,Michigan,Calhoun,26025
Baxter Wilson,32.2831,-90.9306,Gas,Mississippi,Warren,28149
Bay View Backup Power Facility,41.6883,-83.4847,Gas,Ohio,Lucas,39095
Bayonne Energy Center,40.6528,-74.0915,Gas,New Jersey,Hudson,34017
Bayonne Plant Holding LLC,40.6553,-74.1124,Gas,New Jersey,Hudson,34017
Bayou Cogen Plant,29.6225,-95.0458,Gas,Texas,Harris,48201
Bayou Cove Peaking Power,30.2825,-92.5997,Gas,Louisiana,Jefferson,22051
Bayswater Peaking Facility LLC,40.6107,-73.7622,Gas,New York,Nassau,36059
Baytown Energy Center,29.7731,-94.9019,Gas,Texas,Chambers,48071
Bear Garden,37.6956,-78.2853,Gas,Virginia,Fluvanna,51065
Bear Mountain Limited,35.4192,-118.9266,Gas,California,Kern,6029
Bear Valley Power Plant,34.2506,-116.9025,Gas,California,San Bernardino,6071
Beatrice,40.3302,-96.8082,Gas,Nebraska,Gage,31067
Beaver,46.1724,-123.1739,Gas,Oregon,Columbia,41009
Beaver City,40.1303,-99.8278,Gas,Nebraska,Furnas,31065
Beaver Creek Gas Plant,42.8475,-108.3136,Gas,Wyoming,Fremont,56013
Beaver Dam,41.6114,-76.8431,Gas,Pennsylvania,Bradford,42015
Bellingham Cogeneration Facility,42.0925,-71.4833,Gas,Massachusetts,Norfolk,25021
Bellmeade Power Station,37.4964,-77.4317,Gas,Virginia,Chesterfield,51041
Beluga,61.1861,-151.0356,Gas,Alaska,Kenai Peninsula,2122
Ben French,44.0872,-103.261,Gas,South Dakota,Pennington,46103
Benndale,30.8889,-88.8054,Gas,Mississippi,George,28039
Bennett Mountain,43.1472,-115.6666,Gas,Idaho,Elmore,16039
Bergen Generating Station,40.8375,-74.0244,Gas,New Jersey,Bergen,34003
Berkshire Power,42.0476,-72.6478,Gas,Massachusetts,Hampden,25013
Bernice Lake,60.6935,-151.3874,Gas,Alaska,Kenai Peninsula,2122
Berry Cogen,35.093,-119.4436,Gas,California,Kern,6029
Berry Cogen Tanne Hills 18,35.0898,-119.4409,Gas,California,Kern,6029
Berry Placerita Cogen,34.3841,-118.4949,Gas,California,Los Angeles,6037
Bethlehem Energy Center,42.5942,-73.7638,Gas,New York,Rensselaer,36083
Bethlehem Power Plant,40.6175,-75.3147,Gas,Pennsylvania,Northampton,42095
Bethpage Power Plant,40.7469,-73.4994,Gas,New York,Nassau,36059
Big Cajun 1,30.6739,-91.3556,Gas,Louisiana,Pointe Coupee,22077
Big Sand Draw Plant,42.7527,-108.1697,Gas,Wyoming,Fremont,56013
Big Sandy,38.1707,-82.6176,Gas,Kentucky,Lawrence,21127
Big Sandy Peaker Plant,38.3441,-82.5938,Gas,West Virginia,Wayne,54099
Binghamton Cogen,42.1072,-75.9278,Gas,New York,Broome,36007
Biola University,33.907,-118.0131,Gas,California,Los Angeles,6037
Black Dog,44.8108,-93.2501,Gas,Minnesota,Dakota,27037
Black Hawk Station,35.6957,-101.36,Gas,Texas,Hutchinson,48233
Black Mountain Generating Station,35.0361,-114.1594,Gas,Arizona,Mohave,4015
Blacksand Generating Facility,33.9328,-117.855,Gas,California,Orange,6059
Bloomfield,40.7031,-92.4253,Gas,Iowa,Davis,19051
Blossburg,41.7065,-77.0818,Gas,Pennsylvania,Tioga,42117
Blount Street,43.0789,-89.3744,Gas,Wisconsin,Dane,55025
Blue Lake,44.7855,-93.4315,Gas,Minnesota,Scott,27139
Blue Spruce Energy Center,39.7479,-104.6814,Gas,Colorado,Adams,8001
Blue Valley,39.0919,-94.3261,Gas,Missouri,Jackson,29095
Bluegrass Generating Station,38.3902,-85.4133,Gas,Kentucky,Oldham,21185
Bluffview,36.7166,-108.2153,Gas,New Mexico,San Juan,35045
Blythe Energy Inc,33.6157,-114.6865,Gas,California,Riverside,6065
Boise Cascade Pulp & Paper Mill,31.4894,-87.8989,Gas,Alabama,Clarke,1025
Bonanza BioEnergy LLC,37.9586,-100.8361,Gas,Kansas,Finney,20055
Borger Plant,35.6647,-101.4354,Gas,Texas,Hutchinson,48233
Bosque County Peaking,31.8594,-97.3586,Gas,Texas,Bosque,48035
Boston Medical Center CHP Plant,42.3347,-71.0742,Gas,Massachusetts,Suffolk,25025
Boulder Park,47.6972,-117.1472,Gas,Washington,Spokane,53063
Bountiful City,40.8869,-111.8853,Gas,Utah,Davis,49011
Bowline Point,41.2044,-73.9689,Gas,New York,Rockland,36087
Bowling Green Generating Station,41.3974,-83.6412,Gas,Ohio,Wood,39173
Bowling Green Peaking,41.3884,-83.6402,Gas,Ohio,Wood,39173
Bradley Energy Center,41.9271,-72.6831,Gas,Connecticut,Hartford,9003
Brandon Station,33.5853,-101.8861,Gas,Texas,Lubbock,48303
Brandy Branch,30.3206,-81.9472,Gas,Florida,Duval,12031
Bremo Bluff,37.7089,-78.2878,Gas,Virginia,Fluvanna,51065
Brentwood,40.7871,-73.2934,Gas,New York,Suffolk,36103
Bridgeport Energy Project,41.1692,-73.1844,Gas,Connecticut,Fairfield,9001
Bridgeport Fuel Cell Park,41.1681,-73.2111,Gas,Connecticut,Fairfield,9001
Bridgeport Gas Processing Plant,33.1958,-97.8025,Gas,Texas,Wise,48497
Bristol Myers Squibb Lawrenceville,40.3247,-74.7078,Gas,New Jersey,Mercer,34021
Bristol Myers Squibb New Brunswick,40.4757,-74.4462,Gas,New Jersey,Middlesex,34023
Bristol Myers Squibb Wallingford,41.4836,-72.7564,Gas,Connecticut,New Haven,9009
Broad River Energy Center,35.0786,-81.575,Gas,South Carolina,Cherokee,45021
Broadridge Cogen,38.6183,-121.0564,Gas,California,El Dorado,6017
Broadway (IN),37.9691,-87.6049,Gas,Indiana,Vanderburgh,18163
Broken Bow,41.4031,-99.6392,Gas,Nebraska,Custer,31041
Bronx Zoo,40.8441,-73.8769,Gas,New York,Bronx,36005
Brookside Newark,39.6689,-75.7161,Gas,Delaware,New Castle,10003
Broshco Fabricated Products,40.7761,-82.5686,Gas,Ohio,Richland,39139
Brownsville Peaking Power,35.5438,-89.198,Gas,Tennessee,Haywood,47075
Brunner Island,40.0961,-76.6962,Gas,Pennsylvania,Lancaster,42071
Brunot Island,40.4649,-80.0438,Gas,Pennsylvania,Allegheny,42003
Brunswick County Power Station,36.765,-77.7139,Gas,Virginia,Brunswick,51025
Brush Generation Facility,40.2415,-103.631,Gas,Colorado,Morgan,8087
Bryan (OH),41.4718,-84.5431,Gas,Ohio,Williams,39171
Bryan (TX),30.6474,-96.3723,Gas,Texas,Brazos,48041
Buchanan Generation LLC,37.1753,-81.9614,Gas,Virginia,Tazewell,51185
Buck,35.7133,-80.3767,Gas,North Carolina,Rowan,37159
Bucknell University,40.955,-76.8788,Gas,Pennsylvania,Union,42119
Bucksport Generation LLC,44.5738,-68.8046,Gas,Maine,Hancock,23009
Bull Street Plant,33.4898,-80.8703,Gas,South Carolina,Orangeburg,45075
Bunge North America East LLC,40.8465,-84.9333,Gas,Indiana,Adams,18001
Bunge Oil,41.1546,-87.8548,Gas,Illinois,Kankakee,17091
Buras,29.3591,-89.5373,Gas,Louisiana,Plaquemines,22075
Burlingame,38.7551,-95.8368,Gas,Kansas,Osage,20139
Burlington (KS),38.1934,-95.75,Gas,Kansas,Coffey,20031
Burnside Alumina Plant,30.1342,-90.9175,Gas,Louisiana,Ascension,22005
Butler-Warner Generation Plant,35.0986,-78.8294,Gas,North Carolina,Cumberland,37051
C D McIntosh Jr,28.0801,-81.9229,Gas,Florida,Polk,12105
C P Kelco San Diego Plant,32.6947,-117.1436,Gas,California,San Diego,6073
C R Wing Cogen Plant,32.2732,-101.4224,Gas,Texas,Howard,48227
C W Burdick,40.9228,-98.3269,Gas,Nebraska,Hall,31079
CBS Studio Center,34.145,-118.3908,Gas,California,Los Angeles,6037
CC Perry K,39.7631,-86.1667,Gas,Indiana,Marion,18097
CCCSD Wastewater Treatment Plnt,37.9978,-122.0697,Gas,California,Contra Costa,6013
CCSU Co-Gen-STBY Gen,41.6914,-72.7686,Gas,Connecticut,Hartford,9003
CCSU Fuel Cell Project,41.6919,-72.7611,Gas,Connecticut,Hartford,9003
CES Placerita Power Plant,34.3801,-118.4999,Gas,California,Los Angeles,6037
CF Industries Yazoo City Complex,32.9041,-90.3781,Gas,Mississippi,Yazoo,28163
CFB Power Plant,28.6503,-96.5397,Gas,Texas,Calhoun,48057
CH Resources Beaver Falls,43.8861,-75.4342,Gas,New York,Lewis,36049
CH Resources Syracuse,43.0664,-76.2144,Gas,New York,Onondaga,36067
CIP II/AR Bridgewater Holdings - NJCOE,40.624,-74.634,Gas,New Jersey,Somerset,34035
CITGO Refinery Powerhouse,30.1826,-93.3234,Gas,Louisiana,Calcasieu,22019
CML&P Generating Facility No. 2,37.093,-95.5852,Gas,Kansas,Montgomery,20125
CPV St Charles Energy Center,38.5686,-76.8919,Gas,Maryland,Charles,24017
CSL Behring LLC,41.1603,-87.8542,Gas,Illinois,Kankakee,17091
CSU East Bay,37.6589,-122.0594,Gas,California,Alameda,6001
CSU Northridge Plant,34.2433,-118.5306,Gas,California,Los Angeles,6037
CSUCI Site Authority,34.162,-119.0479,Gas,California,Ventura,6111
CSUF Trigeneration,33.8806,-117.8866,Gas,California,Orange,6059
Caithness Long Island Energy Center,40.8142,-72.9403,Gas,New York,Suffolk,36103
CalPeak Power Enterprise Peaker Plant,33.1219,-117.1174,Gas,California,San Diego,6073
CalPeak Power Panoche Peaker Plant,36.6529,-120.5806,Gas,California,Fresno,6019
CalPeak Power Vaca Dixon Peaker Plant,38.3989,-121.924,Gas,California,Solano,6095
Calcasieu,30.1608,-93.345,Gas,Louisiana,Calcasieu,22019
Caledonia,33.6464,-88.2717,Gas,Mississippi,Lowndes,28087
Calhoun Energy Center,33.5883,-85.9731,Gas,Alabama,Calhoun,1015
California Institute of Technology,34.1385,-118.1256,Gas,California,Los Angeles,6037
California State University San Bernardi,34.1858,-117.3242,Gas,California,San Bernardino,6071
Calumet Energy Team LLC,41.6835,-87.5563,Gas,Illinois,Cook,17031
Calvert City,37.0483,-88.3539,Gas,Kentucky,Marshall,21157
Cambridge CT,45.601000000000006,-93.2081,Gas,Minnesota,Isanti,27059
Camden Plant Holding LLC,39.9175,-75.1192,Gas,New Jersey,Camden,34007
Camden South Carolina,34.2338,-80.6558,Gas,South Carolina,Kershaw,45055
Canaday,40.6942,-99.7011,Gas,Nebraska,Dawson,31047
Cane Island,28.2764,-81.533,Gas,Florida,Polk,12105
Cane Run,38.1831,-85.8892,Gas,Kentucky,Jefferson,21111
Cannon Falls Energy Center,44.5367,-92.9155,Gas,Minnesota,Goodhue,27049
Canyon Power Plant,33.8581,-117.8617,Gas,California,Orange,6059
Cape Canaveral,28.4698,-80.7644,Gas,Florida,Brevard,12009
Capitol District Energy Center,41.7639,-72.6925,Gas,Connecticut,Hartford,9003
Cargill Corn Milling Division,41.1386,-92.6467,Gas,Iowa,Wapello,19179
Cargill Salt,42.8183,-82.4856,Gas,Michigan,St Clair,26147
Cargill Salt Hersey,43.8342,-85.3558,Gas,Michigan,Osceola,26133
Carl Bailey,35.2601,-91.3634,Gas,Arkansas,Woodruff,5147
Carlls Corner,39.4547,-75.2014,Gas,New Jersey,Cumberland,34011
Carr Street Generating Station,43.0613,-76.0824,Gas,New York,Onondaga,36067
Carroll County Energy,40.6044,-81.0592,Gas,Ohio,Carroll,39019
Carrollton,39.3515,-93.5016,Gas,Missouri,Carroll,29033
Carson Cogeneration,33.8759,-118.2491,Gas,California,Los Angeles,6037
Carson Ice-Gen Project,38.4457,-121.4624,Gas,California,Sacramento,6067
Carthage,37.1766,-94.2994,Gas,Missouri,Jasper,29097
Carthage Energy LLC,43.9842,-75.6225,Gas,New York,Jefferson,36045
Carty Generating Station,45.6986,-119.8131,Gas,Oregon,Morrow,41049
Carville Energy LLC,30.2294,-91.065,Gas,Louisiana,Iberville,22047
Cascade Creek,44.0322,-92.4908,Gas,Minnesota,Olmsted,27109
Cass County,40.9479,-95.964,Gas,Nebraska,Cass,31025
Castleton Energy Center,42.5375,-73.7433,Gas,New York,Rensselaer,36083
Cedar Bayou,29.75,-94.9256,Gas,Texas,Harris,48201
Cedar Bayou 4,29.7516,-94.9231,Gas,Texas,Harris,48201
Celanese Acetate LLC,37.3439,-80.765,Gas,Virginia,Giles,51071
Cellu Tissue,41.7761,-72.6067,Gas,Connecticut,Hartford,9003
Center Peaker,33.9296,-118.1046,Gas,California,Los Angeles,6037
Central Energy Facility,34.6794,-82.8403,Gas,South Carolina,Pickens,45077
Central Energy Plant,28.4263,-81.5809,Gas,Florida,Orange,12095
Central Energy Plant USU,41.7486,-111.8117,Gas,Utah,Cache,49005
Central Michigan University,43.5905,-84.779,Gas,Michigan,Isabella,26073
Central Utilities Plant LAX 2,33.9439,-118.4042,Gas,California,Los Angeles,6037
Central Utility Plant,30.3974,-97.8426,Gas,Texas,Williamson,48491
Central Utility Plant - Texas A&M,30.6178,-96.3433,Gas,Texas,Brazos,48041
Central Utility Plant Cincinnati,39.1345,-84.5094,Gas,Ohio,Hamilton,39061
Central Utility Plant at White Oak,39.0394,-76.9825,Gas,Maryland,Montgomery,24031
Century Generating Facility,34.0606,-117.3533,Gas,California,San Bernardino,6071
Ceredo Generating Station,38.3681,-82.5339,Gas,West Virginia,Wayne,54099
Chalk Cliff Limited,35.0968,-119.4299,Gas,California,Kern,6029
Chambersburg,39.8669,-77.6858,Gas,Pennsylvania,Franklin,42055
Chamon Power LLC,29.8832,-95.1113,Gas,Texas,Harris,48201
Channel Energy Center LLC,29.7189,-95.2319,Gas,Texas,Harris,48201
Channelview Cogeneration Plant,29.837,-95.1217,Gas,Texas,Harris,48201
Chanute 2,37.6953,-95.4586,Gas,Kansas,Neosho,20133
Chanute 3,37.6376,-95.4704,Gas,Kansas,Neosho,20133
Charles D. Lamb Energy Center,36.8139,-97.1253,Gas,Oklahoma,Kay,40071
Charles P Keller,40.6583,-73.6406,Gas,New York,Nassau,36059
Charter Dura-Bar,42.2891,-88.413,Gas,Illinois,Henry,17073
Chatham,42.9344,-85.3475,Gas,Michigan,Kent,26081
Chattahoochee Energy Facility,33.4072,-85.0386,Gas,Georgia,Heard,13149
Chehalis Generating Facility,46.6225,-122.9131,Gas,Washington,Lewis,53041
Cherokee,39.8073,-104.9645,Gas,Colorado,Adams,8001
Cherokee County Cogen,35.0727,-81.613,Gas,South Carolina,Cherokee,45021
Chevron Oil,30.34,-88.4919,Gas,Mississippi,Jackson,28059
Cheyenne Prairie Generating Station,41.1236,-104.72,Gas,Wyoming,Laramie,56021
Chicago West Side Energy Center,41.8708,-87.6784,Gas,Illinois,Cook,17031
Chillicothe,39.7834,-93.5641,Gas,Missouri,Livingston,29117
Chino Mines,32.6956,-108.1225,Gas,New Mexico,Grant,35017
Choctaw County,33.2881,-89.4201,Gas,Mississippi,Choctaw,28019
Chouteau,36.2221,-95.2771,Gas,Oklahoma,Mayes,40097
Chowchilla II,37.1073,-120.2485,Gas,California,Madera,6039
Chuck Lenzie Generating Station,36.3837,-114.9218,Gas,Nevada,Clark,32003
Chula Vista Energy Center,32.5917,-117.0586,Gas,California,San Diego,6073
Cimarron River,37.1611,-100.7619,Gas,Kansas,Meade,20119
City of Palo Alto,37.4383,-122.1094,Gas,California,Santa Clara,6085
City of West Plains Power Station,36.7486,-91.8686,Gas,Missouri,Howell,29091
CityCenter Central Plant Cogen Units,36.1039,-115.1794,Gas,Nevada,Clark,32003
Civic Center,34.0564,-118.2436,Gas,California,Los Angeles,6037
Clairton Works,40.3097,-79.8819,Gas,Pennsylvania,Allegheny,42003
Clark (NVE),36.0875,-115.0507,Gas,Nevada,Clark,32003
Clark University,42.2508,-71.8226,Gas,Massachusetts,Worcester,25027
Claude Vandyke,42.731,-85.8551,Gas,Michigan,Ottawa,26139
Clay Center,39.374,-97.1272,Gas,Kansas,Clay,20027
Clayville,39.4244,-75.02,Gas,New Jersey,Cumberland,34011
Clearwater Power Plant,33.8912,-117.6085,Gas,California,Riverside,6065
Cleary Flood,41.8653,-71.1061,Gas,Massachusetts,Bristol,25005
Cleveland Cnty Generating Facility,35.1705,-81.4166,Gas,North Carolina,Cleveland,37045
Cleveland Thermal,41.5094,-81.6823,Gas,Ohio,Cuyahoga,39035
Clifton,39.6125,-97.2778,Gas,Kansas,Clay,20027
Clinch River,36.9333,-82.1997,Gas,Virginia,Russell,51167
Clinton,42.0682,-83.976,Gas,Michigan,Lenawee,26091
Coachella,33.6758,-116.1714,Gas,California,Riverside,6065
Coalinga 25D Cogen,36.1556,-120.3972,Gas,California,Fresno,6019
Coalinga 6C Cogen,36.2097,-120.3828,Gas,California,Fresno,6019
Coalinga Cogeneration,36.1807,-120.3885,Gas,California,Fresno,6019
Coalinga Cogeneration Facility,36.1703,-120.3641,Gas,California,Fresno,6019
Coca Cola American Canyon,38.1907,-122.2751,Gas,California,Napa,6055
Coffeyville,37.0373,-95.6127,Gas,Kansas,Montgomery,20125
Cogeneration 1,32.2299,-110.9528,Gas,Arizona,Pima,4019
Cogeneration 2,32.2408,-110.9483,Gas,Arizona,Pima,4019
Coit GT,33.9803,-81.0407,Gas,South Carolina,Richland,45079
Colbert,34.7439,-87.8486,Gas,Alabama,Colbert,1033
Colby,39.403,-101.0382,Gas,Kansas,Thomas,20193
Coldwater Peaking Plant,41.9194,-85.0242,Gas,Michigan,Branch,26023
College of New Jersey,40.2694,-74.7733,Gas,New Jersey,Mercer,34021
Collinwood,41.5569,-81.58800000000002,Gas,Ohio,Cuyahoga,39035
Colorado Bend Energy Center,29.2878,-96.0683,Gas,Texas,Wharton,48481
Colorado Bend II,29.2894,-96.0654,Gas,Texas,Wharton,48481
Colorado Energy Nations Company,39.7606,-105.215,Gas,Colorado,Jefferson,8059
Columbia (MO),38.9646,-92.3168,Gas,Missouri,Boone,29019
Columbia Energy Center,39.0192,-92.2629,Gas,Missouri,Boone,29019
Columbia Energy Center (SC),33.8697,-81.0178,Gas,South Carolina,Lexington,45063
Colusa Generating Station,39.3661,-122.27,Gas,California,Colusa,6011
Comanche (OK),34.5431,-98.3244,Gas,Oklahoma,Comanche,40031
Combined Locks Energy Center,44.2717,-88.3011,Gas,Wisconsin,Outagamie,55087
Combustion Turbine Project No 2,38.0881,-121.3869,Gas,California,San Joaquin,6077
Concord,43.1669,-88.69,Gas,Wisconsin,Jefferson,55055
Consumer Operations LLC,44.4936,-88.0303,Gas,Wisconsin,Brown,55009
Coolidge Generation Station,32.9174,-111.5033,Gas,Arizona,Pinal,4021
Copper,31.7569,-106.375,Gas,Texas,El Paso,48141
Coralville GT,41.6719,-91.564,Gas,Iowa,Johnson,19103
Cordova Energy,41.7122,-90.2797,Gas,Iowa,Clinton,19045
Cornell University Central Heat,42.4428,-76.4764,Gas,New York,Tompkins,36109
Corpus Christi,27.8111,-97.5958,Gas,Texas,Nueces,48355
Corpus Christi Energy Center,27.8139,-97.4283,Gas,Texas,Nueces,48355
Corpus Refinery,27.8322,-97.5281,Gas,Texas,San Patricio,48409
Cosumnes,38.3385,-121.124,Gas,California,Sacramento,6067
Cottonwood Energy Project,30.2588,-93.7353,Gas,Texas,Newton,48351
Coughlin Power Station,30.8439,-92.2611,Gas,Louisiana,Avoyelles,22009
Cove Point LNG Terminal,38.3855,-76.4098,Gas,Maryland,Calvert,24009
Coyote Springs,45.848,-119.6739,Gas,Oregon,Morrow,41049
Coyote Springs II,45.848,-119.674,Gas,Oregon,Morrow,41049
Creed Energy Center,38.2422,-121.8547,Gas,California,Solano,6095
Crete,40.6253,-96.9601,Gas,Nebraska,Saline,31151
Crete Energy Venture LLC,41.4294,-87.6187,Gas,Illinois,Will,17197
Crockett Cogen Project,38.0569,-122.2161,Gas,California,Contra Costa,6013
Crossroads Energy Center,34.183,-90.5621,Gas,Mississippi,Coahoma,28027
Culbertson Generation Station,48.21,-104.3917,Gas,Montana,Richland,30083
Cumberland (NJ),39.3757,-74.9654,Gas,New Jersey,Cumberland,34011
Cumberland (WI),45.5336,-92.0224,Gas,Wisconsin,Barron,55005
Cunningham,32.7131,-103.3533,Gas,New Mexico,Lea,35025
Currant Creek,39.8214,-111.8935,Gas,Utah,Juab,49023
Curtis,40.6315,-100.5152,Gas,Nebraska,Frontier,31063
Curtis H Stanton Energy Center,28.4882,-81.1669,Gas,Florida,Orange,12095
Custer Energy Center,44.0854,-87.7261,Gas,Wisconsin,Manitowoc,55071
Cutrale Citrus Juices USA I,28.8118,-81.8653,Gas,Florida,Lake,12069
Cutrale Citrus Juices USA II,28.0548,-81.7982,Gas,Florida,Polk,12105
Cuyamaca Peak Energy Plant,32.7965,-116.9721,Gas,California,San Diego,6073
Cymric 31X Cogen,35.3639,-119.6592,Gas,California,Kern,6029
Cymric 36W Cogen,35.3633,-119.6756,Gas,California,Kern,6029
Cymric 6Z Cogen,35.3461,-119.6434,Gas,California,Kern,6029
D G Hunter,31.3207,-92.4613,Gas,Louisiana,Rapides,22079
DGS Central Utility Plant,38.5739,-121.5014,Gas,California,Sacramento,6067
Dahlberg,34.0423,-83.3977,Gas,Georgia,Clarke,13059
Dan E Karn,43.645,-83.8401,Gas,Michigan,Bay,26017
Dan River,36.4862,-79.7208,Gas,North Carolina,Rockingham,37157
Danbury Hospital Cogen Plant,41.4053,-73.4475,Gas,Connecticut,Fairfield,9001
Dansby,30.7217,-96.4608,Gas,Texas,Brazos,48041
Danskammer Generating Station,41.5712,-73.975,Gas,New York,Ulster,36111
Darby Power  LLC,39.7139,-83.1778,Gas,Ohio,Madison,39097
Darbytown,37.4982,-77.3685,Gas,Virginia,Henrico,51087
Darlington County,34.4185,-80.1657,Gas,South Carolina,Darlington,45031
Dartmouth Power Associates LP,41.6731,-70.9994,Gas,Massachusetts,Bristol,25005
Dave Gates Generating Station,46.1047,-112.8766,Gas,Montana,Deer Lodge,30023
De Pere Energy Center,44.4486,-88.072,Gas,Wisconsin,Brown,55009
DeCordova Steam Electric Station,32.4031,-97.7006,Gas,Texas,Hood,48221
Dean,42.7725,-82.4953,Gas,Michigan,St Clair,26147
Dearborn Industrial Generation,42.3026,-83.154,Gas,Michigan,Wayne,26163
Decatur Energy Center,34.6292,-87.0214,Gas,Alabama,Morgan,1103
Decker Creek,30.3033,-97.6128,Gas,Texas,Travis,48453
Decorative Panels Intl,45.0628,-83.4233,Gas,Michigan,Alpena,26007
Deer Creek Station,44.2908,-96.5267,Gas,South Dakota,Moody,46101
Deer Park Energy Center,29.7134,-95.1345,Gas,Texas,Harris,48201
Delano Energy Center,35.7909,-119.2945,Gas,California,Kern,6029
Delaware City Plant,39.5871,-75.6343,Gas,Delaware,New Castle,10003
Dell Power Station,35.8619,-90.0253,Gas,Arkansas,Mississippi,5093
Delray,42.2947,-83.1019,Gas,Michigan,Wayne,26163
Delta Energy Center,38.0169,-121.8439,Gas,California,Contra Costa,6013
Demoss Petrie,32.2523,-110.9921,Gas,Arizona,Pima,4019
Desert Basin,32.9042,-111.7889,Gas,Arizona,Pinal,4021
Desert Star Energy Center,35.7889,-114.9942,Gas,Nevada,Clark,32003
Dicks Creek,39.465,-84.3778,Gas,Ohio,Butler,39017
Dighton Power Plant,41.8312,-71.1239,Gas,Massachusetts,Bristol,25005
Dogwood Energy Facility,38.7931,-94.3006,Gas,Missouri,Cass,29037
Dome Project,35.2208,-119.5831,Gas,California,Kern,6029
Domino Sugar Arabi Plant,29.9468,-90.0018,Gas,Louisiana,St Bernard,22087
Domino Sugar Baltimore,39.2744,-76.5956,Gas,Maryland,Baltimore,24005
Don Henry,40.5832,-98.4201,Gas,Nebraska,Adams,31001
Donald Von Raesfeld Power Plant,37.3767,-121.9508,Gas,California,Santa Clara,6085
Doswell Energy Center,37.8208,-77.4462,Gas,Virginia,Hanover,51085
Double C Generation Limited Partnership,35.5005,-119.046,Gas,California,Kern,6029
Dow St Charles Operations,29.9861,-90.4414,Gas,Louisiana,St Charles,22089
Doyle Energy Facility,33.8377,-83.6996,Gas,Georgia,Walton,13297
Dresden Energy Facility,40.0928,-82.0276,Gas,Ohio,Muskingum,39119
Drews Generating Facility,34.0609,-117.3532,Gas,California,San Bernardino,6071
Dynegy Moss Landing Power Plant,36.8048,-121.7822,Gas,California,Monterey,6053
E B Harris Electric Generating Plant,32.3814,-86.5744,Gas,Alabama,Autauga,1001
E C Gaston,33.2442,-86.4581,Gas,Alabama,Shelby,1117
E F Barrett,40.6167,-73.6479,Gas,New York,Nassau,36059
E F Oxnard Energy Facility,34.1958,-119.1664,Gas,California,Ventura,6111
E W Brown,37.7883,-84.7126,Gas,Kentucky,Jessamine,21113
E.B. Eddy Paper Inc,42.9896,-82.4379,Gas,Michigan,St Clair,26147
EG178 Facility,32.7471,-100.9547,Gas,Texas,Scurry,48415
Eagle Point Power Generation,39.8746,-75.1592,Gas,New Jersey,Gloucester,34015
Earl F Wisdom,43.1606,-95.2569,Gas,Iowa,Clay,19041
East 12th Street,37.2367,-96.9625,Gas,Kansas,Cowley,20035
East Campus Steam Plant,40.8092,-77.8475,Gas,Pennsylvania,Centre,42027
East River,40.7281,-73.9742,Gas,New York,Queens,36081
Eastern Maine Medical Center,44.8083,-68.7508,Gas,Maine,Penobscot,23019
Eastman Cogeneration Facility,32.4481,-94.6903,Gas,Texas,Gregg,48183
Ector County Energy Center,32.0692,-102.5856,Gas,Texas,Ector,48135
Eddystone Generating Station,39.858,-75.32300000000002,Gas,Pennsylvania,Delaware,42045
Edge Moor,39.7389,-75.5038,Gas,Delaware,New Castle,10003
Edgewood Energy LLC,40.7861,-73.2931,Gas,New York,Suffolk,36103
Edward L. Addison Generating Plant,32.9111,-84.3064,Gas,Georgia,Upson,13293
Effingham County Power Project,32.2773,-81.2844,Gas,Georgia,Effingham,13103
Eight Flags Energy,30.6608,-81.4706,Gas,Florida,Nassau,12089
Eklutna Generation Station,61.4578,-149.3514,Gas,Alaska,Matanuska-Susitna,2170
El Cajon Energy Center,32.7961,-116.9721,Gas,California,San Diego,6073
El Centro,32.8022,-115.54,Gas,California,Imperial,6025
El Dorado Refinery,37.7928,-96.8772,Gas,Kansas,Butler,20015
El Segundo Cogen,33.9058,-118.4031,Gas,California,Los Angeles,6037
El Segundo Energy Center LLC,33.9106,-118.425,Gas,California,Los Angeles,6037
Electrifarm,42.4407,-92.4205,Gas,Iowa,Black Hawk,19013
Elgin Energy Center LLC,42.0001,-88.2446,Gas,Illinois,Kane,17089
Elizabeth River Power Station,36.775,-76.3083,Gas,Virginia,Chesapeake City,51550
Elk Basin Gasoline Plant,44.9806,-108.8428,Gas,Wyoming,Park,56029
Elk Hills Cogen,35.4791,-119.7375,Gas,California,Kern,6029
Elk Hills Power LLC,35.2803,-119.4707,Gas,California,Kern,6029
Elk Mound,44.9028,-91.5681,Gas,Wisconsin,Eau Claire,55035
Elk River,45.2968,-93.5584,Gas,Minnesota,Sherburne,27141
Elk Station,33.865,-101.8433,Gas,Texas,Lubbock,48303
Elkins Generating Center,35.9714,-94.0014,Gas,Arkansas,Washington,5143
Elkton,38.3836,-78.6528,Gas,Virginia,Rockingham,51165
Ellwood,34.4314,-119.9001,Gas,California,Santa Barbara,6083
Elmwood Energy Holdings LLC,40.9053,-74.1304,Gas,New Jersey,Bergen,34003
Elwood Energy LLC,41.4388,-88.1236,Gas,Illinois,Will,17197
Emerson,42.276,-96.7292,Gas,Nebraska,Dixon,31051
Emery Station,43.094,-93.2922,Gas,Iowa,Cerro Gordo,19033
Empire Energy Center,37.1385,-94.1041,Gas,Missouri,Jasper,29097
Empire Generating Co LLC,42.6252,-73.75,Gas,New York,Rensselaer,36083
Emporia Energy Center,38.4459,-96.0652,Gas,Kansas,Lyon,20111
Encina,33.1361,-117.3364,Gas,California,San Diego,6073
Encogen,48.746,-122.486,Gas,Washington,Whatcom,53073
Energy Center,34.0631,-117.1639,Gas,California,San Bernardino,6071
Energy Shelby County,39.2794,-88.4772,Gas,Illinois,Cumberland,17035
Engineered Carbons Borger Cogen,35.667,-101.432,Gas,Texas,Hutchinson,48233
Engineered Carbons Echo Cogeneration,30.1525,-93.7206,Gas,Texas,Orange,48361
Ennis Power Company LLC,32.32,-96.675,Gas,Texas,Ellis,48139
Enterprise Products Operating,29.8247,-94.9197,Gas,Texas,Chambers,48071
Equilon Los Angeles Refining,33.7917,-118.2347,Gas,California,Los Angeles,6037
Equinix San Jose,37.2417,-121.7814,Gas,California,Santa Clara,6085
Equus Freeport Power,40.6439,-73.5683,Gas,New York,Nassau,36059
Ergon Refining Vicksburg,32.3883,-90.9083,Gas,Mississippi,Warren,28149
Erie Coke,42.1439,-80.0696,Gas,Pennsylvania,Erie,42049
Erving Paper Mills,42.5983,-72.3875,Gas,Massachusetts,Franklin,25011
Escondido Energy Center,33.1261,-117.1172,Gas,California,San Diego,6073
Essential Power Massachusetts LLC,42.095,-72.595,Gas,Massachusetts,Hampden,25013
Essential Power Newington LLC,43.1047,-70.8061,Gas,Maine,York,23031
Essential Power Rock Springs LLC,39.719,-76.1598,Gas,Maryland,Cecil,24015
Essex,36.8682,-89.8402,Gas,Missouri,Stoddard,29207
Estherville,43.4028,-94.8433,Gas,Iowa,Emmet,19063
Etiwanda Generating Station,34.0912,-117.5266,Gas,California,San Bernardino,6071
Evander Andrews Power Complex,43.1792,-115.7343,Gas,Idaho,Elmore,16039
Evanston Township High School,42.044,-87.6996,Gas,Illinois,Cook,17031
Exelon LaPorte Generating Station,29.7028,-95.0718,Gas,Texas,Harris,48201
Exira,41.5144,-94.9197,Gas,Iowa,Cass,19029
Expander Turbine,41.6836,-87.4233,Gas,Indiana,Lake,18089
ExxonMobil Baton Rouge Turbine Generator,30.4897,-91.1872,Gas,Louisiana,West Baton Rouge,22121
ExxonMobil Baytown Refinery,29.7535,-94.9973,Gas,Texas,Harris,48201
ExxonMobil Baytown Turbine,29.7591,-95.0096,Gas,Texas,Harris,48201
ExxonMobil Beaumont Refinery,30.0636,-94.0753,Gas,Texas,Jefferson,48245
ExxonMobil Mobile Bay Onshore,30.432,-88.1824,Gas,Alabama,Mobile,1097
ExxonMobil Oil Joliet Refinery,41.4167,-88.1833,Gas,Illinois,Will,17197
ExxonMobil Santa Ynez Facility,34.4648,-120.0444,Gas,California,Santa Barbara,6083
Fairfield University CHP Plant,41.1589,-73.2572,Gas,Connecticut,Fairfield,9001
Fairless Energy Center,40.1475,-74.7411,Gas,New Jersey,Burlington,34005
Fairmont (MN),43.6579,-94.4647,Gas,Minnesota,Martin,27091
Falling Spring,39.9389,-77.6583,Gas,Pennsylvania,Franklin,42055
Falls City,40.055,-95.6083,Gas,Nebraska,Richardson,31147
Faribault Energy Park,44.3356,-93.2906,Gas,Minnesota,Rice,27131
Fayette Energy Facility,39.8592,-79.9182,Gas,Pennsylvania,Fayette,42051
Feather River Energy Center,39.1093,-121.6093,Gas,California,Sutter,6101
Ferndale Generating Station,48.82899999999999,-122.6851,Gas,Washington,Whatcom,53073
FirstEnergy West Lorain,41.4294,-82.2644,Gas,Ohio,Lorain,39093
Fitchburg,43.0147,-89.4603,Gas,Wisconsin,Dane,55025
Florida's Natural Growers,27.9114,-81.6006,Gas,Florida,Polk,12105
Ford Utilities Center,35.0841,-106.6252,Gas,New Mexico,Bernalillo,35001
Fore River Generating Station,42.2422,-70.9661,Gas,Massachusetts,Norfolk,25021
Forked River,39.8154,-74.2098,Gas,New Jersey,Ocean,34029
Formosa Plastics,30.4992,-91.1872,Gas,Louisiana,West Baton Rouge,22121
Formosa Utility Venture Ltd,28.6917,-96.5417,Gas,Texas,Calhoun,48057
Forney Energy Center,32.7563,-96.4916,Gas,Texas,Kaufman,48257
Fort Churchill,39.1281,-119.1322,Gas,Nevada,Lyon,32019
Fort Dodge,37.7328,-99.9497,Gas,Kansas,Ford,20057
Fort Lupton,40.0922,-104.796,Gas,Colorado,Weld,8123
Fort Myers,26.6967,-81.7831,Gas,Florida,Lee,12071
Fort St Vrain,40.2461,-104.8742,Gas,Colorado,Weld,8123
Fortistar North Tonawanda,43.0483,-78.8539,Gas,New York,Niagara,36063
Foster Wheeler Martinez,38.0244,-122.0589,Gas,California,Contra Costa,6013
Fountain Valley Power Facility,38.5569,-104.6875,Gas,Colorado,El Paso,8041
Fox Energy Center,44.3204,-88.2089,Gas,Wisconsin,Brown,55009
Fox Metro Water Reclamation District,41.7128,-88.3522,Gas,Illinois,Kendall,17093
Foxwoods CoGen,41.4731,-71.9606,Gas,Connecticut,New London,9011
Frank Knutson,39.9411,-104.682,Gas,Colorado,Weld,8123
Frank M Tait,39.7272,-84.2111,Gas,Ohio,Montgomery,39113
Franklin (NE),40.0892,-98.9508,Gas,Nebraska,Franklin,31061
Franklin Heating Station,44.0206,-92.4656,Gas,Minnesota,Olmsted,27109
Franklin Templeton San Mateo,37.5425,-122.2928,Gas,California,San Mateo,6081
Frederickson,47.0797,-122.365,Gas,Washington,Pierce,53053
Frederickson Power LP,47.0861,-122.3657,Gas,Washington,Pierce,53053
Fredericktown Energy Center,37.5717,-90.3173,Gas,Missouri,Madison,29123
Fredonia,48.4558,-122.4358,Gas,Washington,Skagit,53057
Freedom Power Project,39.1033,-88.859,Gas,Illinois,Fayette,17051
Freeport Energy,28.9913,-95.4075,Gas,Texas,Brazoria,48039
Freeport Energy Center,28.9888,-95.3954,Gas,Texas,Brazoria,48039
Freestone Energy Center,31.8907,-96.1131,Gas,Texas,Freestone,48161
Fremont Energy Center,41.3771,-83.1614,Gas,Ohio,Sandusky,39143
Fresno Cogen Partners,36.617,-120.0998,Gas,California,Fresno,6019
Frito Lay Incorporated,41.8628,-71.8917,Gas,Connecticut,Windham,9015
Frito-Lay Cogen Plant,35.3951,-119.3216,Gas,California,Kern,6029
Front Range Power Plant,38.6281,-104.7069,Gas,Colorado,El Paso,8041
Fruita,39.1364,-108.7347,Gas,Colorado,Mesa,8077
Fullerton Mill CHP,33.8617,-117.8931,Gas,California,Orange,6059
Fulton (AR),33.6094,-93.7924,Gas,Arkansas,Hempstead,5057
Fulton (MO),38.8681,-91.9478,Gas,Missouri,Callaway,29027
G W Ivey,25.4756,-80.47,Gas,Florida,Miami-Dade,12086
GREC,36.1903,-95.2894,Gas,Oklahoma,Mayes,40097
Gadsby,40.7686,-111.9289,Gas,Utah,Salt Lake,49035
Gadsden,34.0128,-85.9708,Gas,Alabama,Etowah,1055
Galion Generating Station,40.7167,-82.789,Gas,Ohio,Crawford,39033
Gallup Refinery,35.4883,-108.4265,Gas,New Mexico,McKinley,35031
Gans,39.7475,-79.8389,Gas,Pennsylvania,Fayette,42051
Garden City,37.9703,-100.8956,Gas,Kansas,Finney,20055
Gardner Energy Center,38.8308,-94.8903,Gas,Kansas,Johnson,20091
Garrison Energy Center LLC,39.1872,-75.4994,Gas,Delaware,Kent,10001
Gary Works,41.6224,-87.3289,Gas,Indiana,Lake,18089
Gas Turbine (IA),42.512,-92.476,Gas,Iowa,Black Hawk,19013
Gateway Generating Station,38.0175,-121.7587,Gas,California,Contra Costa,6013
Gaviota Oil Plant,34.4751,-120.2051,Gas,California,Santa Barbara,6083
Gaylord - Consumers,45.0306,-84.7039,Gas,Michigan,Otsego,26137
Gaylord - Wolverine,45.0046,-84.7218,Gas,Michigan,Otsego,26137
Geismar,30.2,-91.0,Gas,Louisiana,Ascension,22005
Geismar Cogen,30.209,-90.9921,Gas,Louisiana,Ascension,22005
General Electric Aircraft Engines,42.45,-70.9739,Gas,Massachusetts,Essex,25009
General Electric Plastic,32.3102,-86.5254,Gas,Alabama,Lowndes,1085
General Mills Inc,42.871,-78.8755,Gas,New York,Erie,36029
Geneseo,41.4515,-90.1485,Gas,Illinois,Henry,17073
Geneva Generation Facility,41.8911,-88.2711,Gas,Illinois,Kane,17089
George Birdsall,38.8814,-104.8169,Gas,Colorado,El Paso,8041
George Johnson,43.8393,-85.426,Gas,Michigan,Osceola,26133
George M Sullivan Generation Plant 2,61.2297,-149.7167,Gas,Alaska,Anchorage,2020
Georgetown,39.9026,-86.2441,Gas,Indiana,Boone,18011
Georgia-Pacific Corp - Nekoosa Mill,44.3142,-89.8964,Gas,Wisconsin,Wood,55141
Gerald Andrus,33.35,-91.1167,Gas,Mississippi,Washington,28151
Gianera,37.401,-121.9687,Gas,California,Santa Clara,6085
Gibson City Energy Center LLC,40.4705,-88.3987,Gas,Illinois,Ford,17053
Gila River Power Block 1,32.975,-112.6944,Gas,Arizona,Maricopa,4013
Gila River Power Block 2,32.975,-112.6944,Gas,Arizona,Maricopa,4013
Gila River Power Block 3,32.975,-112.6944,Gas,Arizona,Maricopa,4013
Gila River Power Block 4,32.975,-112.6944,Gas,Arizona,Maricopa,4013
Gilbert,40.5658,-75.1639,Gas,New Jersey,Hunterdon,34019
Gillette SBMC,42.3436,-71.0559,Gas,Massachusetts,Suffolk,25025
Gilroy Peaking Energy Center,36.999,-121.5363,Gas,California,Santa Clara,6085
Gilroy Power Plant,37.0001,-121.5367,Gas,California,Santa Clara,6085
Girard,37.5077,-94.8393,Gas,Kansas,Crawford,20037
Gleason Generating Facility,36.2454,-88.61200000000002,Gas,Tennessee,Weakley,47183
Glenarm,34.126,-118.1494,Gas,California,Los Angeles,6037
Glendive GT,47.0539,-104.74,Gas,Montana,Dawson,30021
Glenwood Landing,40.8275,-73.6478,Gas,New York,Nassau,36059
Goal Line LP,33.1185,-117.0995,Gas,California,San Diego,6073
Golden Renewable Energy  LLC,43.1159,-93.227,Gas,Iowa,Cerro Gordo,19033
Goldendale Generating Station,45.8114,-120.833,Gas,Washington,Klickitat,53039
Goodland,39.3416,-101.7052,Gas,Kansas,Sherman,20181
Goodman Energy Center,38.9303,-99.3617,Gas,Kansas,Ellis,20051
Goodyear Beaumont Chemical Plant,29.9728,-94.2142,Gas,Texas,Jefferson,48245
Goose Creek Energy Center,40.1069,-88.5999,Gas,Illinois,Piatt,17147
Goose Haven Energy Center,38.2268,-121.8433,Gas,California,Solano,6095
Gordon Evans Energy Center,37.7903,-97.5217,Gas,Kansas,Sedgwick,20173
Gordonsville Energy LP,38.1247,-78.2035,Gas,Virginia,Orange,51137
Gould Street,39.2663,-76.6047,Gas,Maryland,Baltimore,24005
Graham,33.1344,-98.6117,Gas,Texas,Young,48503
Gramercy Holdings LLC,30.054,-90.6693,Gas,Louisiana,St James,22093
Grand Ave Plant,39.1119,-94.5811,Gas,Missouri,Jackson,29095
Grand Haven Diesel Plant,43.0598,-86.2379,Gas,Michigan,Ottawa,26139
Grand Isle Gas Plant / Treating Station,29.2521,-89.9721,Gas,Louisiana,Jefferson,22051
Grand Tower Energy Center LLC,37.6577,-89.5112,Gas,Illinois,Jackson,17077
Granite City,45.5756,-94.1408,Gas,Minnesota,Stearns,27145
Granite Ridge,42.9042,-71.4261,Gas,New Hampshire,Rockingham,33015
Grapeland Peaker,34.0903,-117.5343,Gas,California,San Bernardino,6071
Graphic Packaging,42.3068,-85.579,Gas,Michigan,Kalamazoo,26077
Gravel Neck,37.1575,-76.6911,Gas,Virginia,Isle of Wight,51093
Grays Ferry Cogeneration,39.9422,-75.1881,Gas,Pennsylvania,Philadelphia,42101
Grays Harbor Energy Facility,46.9692,-123.48,Gas,Washington,Grays Harbor,53027
Grayson,34.1556,-118.2782,Gas,California,Los Angeles,6037
Great Bend - Sunflower,38.41,-98.8689,Gas,Kansas,Barton,20009
Greater Des Moines,41.5563,-93.5283,Gas,Iowa,Polk,19153
Green Country Energy LLC,35.9833,-95.9346,Gas,Oklahoma,Tulsa,40143
Green Power 2,29.3781,-94.9328,Gas,Texas,Galveston,48167
Greene County,32.6017,-87.7811,Gas,Alabama,Marengo,1091
Greenidge Generation LLC,42.6789,-76.9483,Gas,New York,Yates,36123
Greenland Energy Center,30.1591,-81.5184,Gas,Florida,St Johns,12109
Greenleaf 1 Power Plant,39.0529,-121.6961,Gas,California,Sutter,6101
Greenleaf 2 Power Plant,39.1365,-121.6397,Gas,California,Sutter,6101
Greens Bayou,29.8222,-95.2194,Gas,Texas,Harris,48201
Greenville Electric Generating Station,40.0758,-84.6151,Gas,Ohio,Darke,39037
Greenwood (MI),43.1056,-82.6964,Gas,Michigan,St Clair,26147
Greenwood (MO),38.8615,-94.2982,Gas,Missouri,Jackson,29095
Gregory Power Facility,27.8893,-97.2584,Gas,Texas,San Patricio,48409
Griffith Energy LLC,35.054,-114.1333,Gas,Arizona,Mohave,4015
Grimes Way,46.7289,-117.1514,Gas,Washington,Whitman,53075
Grossmont Hospital,32.7797,-117.0064,Gas,California,San Diego,6073
Groton Generating Station,45.3735,-98.0987,Gas,South Dakota,Brown,46013
Guadalupe Generating Station,29.6244,-98.1419,Gas,Texas,Guadalupe,48187
H Allen Franklin Combined Cycle,32.6078,-85.0975,Gas,Alabama,Lee,1081
H L Culbreath Bayside Power Station,27.9072,-82.4231,Gas,Florida,Hillsborough,12057
H Wilson Sundt Generating Station,32.16,-110.9047,Gas,Arizona,Pima,4019
H. Gonzales,33.9986,-118.2219,Gas,California,Los Angeles,6037
HP Hood CT,39.1325,-78.1875,Gas,Virginia,Frederick,51069
HSCo CHP,41.7614,-72.6686,Gas,Connecticut,Hartford,9003
HTW Plant 303 COGEN,40.7631,-111.8417,Gas,Utah,Salt Lake,49035
HVCC Cogen Plant,42.6969,-73.68,Gas,New York,Rensselaer,36083
Haefling,38.0794,-84.5194,Gas,Kentucky,Fayette,21067
Hagood,32.8265,-79.9634,Gas,South Carolina,Charleston,45019
Hal C Weaver Power Plant,30.2867,-97.7356,Gas,Texas,Travis,48453
Hallam,40.5587,-96.7862,Gas,Nebraska,Lancaster,31109
Hamilton (OH),39.4098,-84.5543,Gas,Ohio,Butler,39017
Hamilton Peaking,39.3528,-84.5183,Gas,Ohio,Butler,39017
Hamlet Generating Facility,34.8423,-79.7361,Gas,North Carolina,Richmond,37153
Hampton Facility,42.9383,-70.8406,Gas,New Hampshire,Rockingham,33015
Hancock,42.5497,-83.4425,Gas,Michigan,Oakland,26125
Handley,32.7283,-97.2192,Gas,Texas,Tarrant,48439
Handsome Lake Energy LLC,41.2908,-79.8061,Gas,Pennsylvania,Venango,42121
Hanford Energy Park Peaker,36.2701,-119.6481,Gas,California,Kings,6031
Hanging Rock Energy Facility,38.5731,-82.7833,Gas,Kentucky,Green,21087
Harbor,33.7706,-118.2656,Gas,California,Los Angeles,6037
Harbor Cogen,33.7771,-118.2303,Gas,California,Los Angeles,6037
Hardee Power Station,27.6364,-81.9636,Gas,Florida,Hardee,12049
Hardin County Peaking Facility,30.3038,-94.2526,Gas,Texas,Hardin,48199
Harding Street,39.7113,-86.1969,Gas,Indiana,Marion,18097
Hargis-Hebert Electric Generating,30.1694,-91.9923,Gas,Louisiana,Lafayette,22055
Harlem River Yard,40.7991,-73.9156,Gas,New York,New York,36061
Harquahala Generating Project,33.476,-113.1134,Gas,Arizona,Maricopa,4013
Harrison County Power Project,32.3958,-94.4367,Gas,Texas,Rusk,48401
Harry Allen,36.4306,-114.9024,Gas,Nevada,Clark,32003
Harry D Mattison Gas Plant,36.1855,-94.2841,Gas,Arkansas,Washington,5143
Harry L. Oswald,34.5923,-92.2166,Gas,Arkansas,Pulaski,5119
Hartford Hospital Cogeneration,41.7631,-72.6733,Gas,Connecticut,Hartford,9003
Hartwell Energy Facility,34.3396,-82.8199,Gas,Georgia,Hart,13147
Hartzog,43.8294,-105.5322,Gas,Wyoming,Campbell,56005
Haverhill North Cogeneration Facility,38.5967,-82.8286,Gas,Kentucky,Green,21087
Hawk Road Facility,33.3585,-84.9914,Gas,Georgia,Heard,13149
Haworth Water Treatment Plant,40.9593,-74.0151,Gas,New Jersey,Bergen,34003
Hay Road,39.7436,-75.5072,Gas,Delaware,New Castle,10003
Haynes,33.7647,-118.0991,Gas,California,Orange,6059
Hays Energy Project,29.7806,-97.9894,Gas,Texas,Guadalupe,48187
Hazelton,40.9282,-76.0409,Gas,Pennsylvania,Schuylkill,42107
Heat Plant 770,39.7941,-84.0805,Gas,Ohio,Greene,39057
Heber City,40.5037,-111.4252,Gas,Utah,Wasatch,49051
Hell Gate,40.799,-73.9094,Gas,New York,New York,36061
Henderson,33.5173,-90.2097,Gas,Mississippi,Leflore,28083
Henrietta Peaker,36.2397,-119.9044,Gas,California,Kings,6031
Henry County,39.9528,-85.5039,Gas,Indiana,Henry,18065
Henry Station,43.5951,-83.8999,Gas,Michigan,Bay,26017
Hermiston Generating Plant,45.8042,-119.37,Gas,Oregon,Umatilla,41059
Hermiston Power Partnership,45.794,-119.3133,Gas,Oregon,Umatilla,41059
Hidalgo Energy Center,26.3417,-98.1758,Gas,Texas,Hidalgo,48215
Higgins,28.0033,-82.6615,Gas,Florida,Pinellas,12103
Higgins Generating Station,35.6139,-115.3561,Gas,Nevada,Clark,32003
Higginsville,39.0733,-93.7147,Gas,Missouri,Lafayette,29107
High Bridge,44.9314,-93.1117,Gas,Minnesota,Dakota,27037
High Desert Power Plant,34.5953,-117.3647,Gas,California,San Bernardino,6071
High Sierra Cogeneration Plant,40.4128,-120.4774,Gas,California,Lassen,6035
High Sierra Limited,35.509,-119.0305,Gas,California,Kern,6029
High Street Station,42.6986,-70.8697,Gas,Massachusetts,Essex,25009
Hill City,39.3582,-99.8417,Gas,Kansas,Graham,20065
Hillabee Energy Center,33.0007,-85.9033,Gas,Alabama,Tallapoosa,1123
Hillburn,41.1269,-74.1653,Gas,New York,Rockland,36087
Hillsdale,41.9061,-84.6319,Gas,Michigan,Hillsdale,26059
Hilton NY Co Gen Plant,40.7625,-73.9792,Gas,New York,New York,36061
Hinds Energy Facility,32.379,-90.2199,Gas,Mississippi,Hinds,28049
Hines Energy Complex,27.7882,-81.87,Gas,Florida,Polk,12105
Hoag Hospital Cogen Plant,33.6228,-117.9364,Gas,California,Orange,6059
Hobbs Generating Station,32.7283,-103.3094,Gas,New Mexico,Lea,35025
Hoffer Plastics,41.9989,-88.3022,Gas,Illinois,Kane,17089
Hoffmann LaRoche,40.8359,-74.155,Gas,New Jersey,Essex,34013
Hofstra University,40.7139,-73.6003,Gas,New York,Nassau,36059
Hog Bayou Energy Center,30.7478,-88.0575,Gas,Alabama,Mobile,1097
Hoisington,38.51300000000001,-98.7747,Gas,Kansas,Barton,20009
Holden,38.7538,-93.9983,Gas,Missouri,Johnson,29101
Holland Energy Facility,39.2231,-88.7584,Gas,Illinois,Effingham,17049
Holland Energy Park,42.7925,-86.0922,Gas,Michigan,Ottawa,26139
Honda Torrance,33.8381,-118.315,Gas,California,Los Angeles,6037
Hopewell Cogeneration,37.2917,-77.2811,Gas,Virginia,Hopewell City,51670
Hopewell Cogeneration NJ,40.3483,-74.7715,Gas,New Jersey,Mercer,34021
Horseshoe Lake,35.5087,-97.1797,Gas,Oklahoma,Oklahoma,40109
Hot Spring Generating Facility,34.2976,-92.8683,Gas,Arkansas,Hot Spring,5059
Houma,29.5806,-90.7225,Gas,Louisiana,Terrebonne,22109
Houston Chemical Complex Battleground,29.7314,-95.0839,Gas,Texas,Harris,48201
Houweling Nurseries,34.1797,-119.0831,Gas,California,Ventura,6111
Howard Down,39.4889,-75.0347,Gas,New Jersey,Cumberland,34011
Humboldt Bay,40.7415,-124.2103,Gas,California,Humboldt,6023
Hunlock Power Station,41.2006,-76.07,Gas,Pennsylvania,Luzerne,42079
Hunlock Unit 4,41.2025,-76.0683,Gas,Pennsylvania,Luzerne,42079
Hunterdon Cogen Facility,40.6278,-74.936,Gas,New Jersey,Hunterdon,34019
Hunterstown Power Plant,39.8725,-77.1672,Gas,Pennsylvania,Adams,42001
Huron,44.3695,-98.1722,Gas,South Dakota,Beadle,46005
Hurricane City Power,37.1856,-113.2975,Gas,Utah,Washington,49053
Hutchinson Energy Center,38.0906,-97.8747,Gas,Kansas,Reno,20155
Hutchinson Plant #1,44.8957,-94.3684,Gas,Minnesota,McLeod,27085
Hutchinson Plant #2,44.8889,-94.3493,Gas,Minnesota,McLeod,27085
IBM Southbury,41.4725,-73.207,Gas,Connecticut,New Haven,9009
ITT Cogen Facility,41.8344,-87.6285,Gas,Illinois,Cook,17031
Imperial Savannah LP,32.144,-81.1466,Gas,Georgia,Chatham,13051
Indeck Corinth Energy Center,43.25,-73.8125,Gas,New York,Saratoga,36091
Indeck Olean Energy Center,42.0859,-78.4543,Gas,New York,Cattaraugus,36009
Indeck Oswego Energy Center,43.4717,-76.4935,Gas,New York,Oswego,36075
Indeck Silver Springs Energy Center,42.6544,-78.0772,Gas,New York,Wyoming,36121
Indeck Yerkes Energy Center,42.9671,-78.9182,Gas,New York,Erie,36029
Indian Orchard Plant 1,42.1569,-72.5242,Gas,Massachusetts,Hampden,25013
Indian River,28.4932,-80.7802,Gas,Florida,Brevard,12009
Indian River Plant,28.4932,-80.7801,Gas,Florida,Brevard,12009
Indiana Harbor E 5 AC Station,41.6844,-87.4214,Gas,Indiana,Lake,18089
Indiana University of Pennsylvania,40.6144,-79.1594,Gas,Pennsylvania,Indiana,42063
Indigo Energy Facility,33.9109,-116.553,Gas,California,Riverside,6065
Ingleside Cogeneration,27.8828,-97.2428,Gas,Texas,San Patricio,48409
Ingredion Stockton,37.9128,-121.2614,Gas,California,San Joaquin,6077
Inland Empire Energy Center,33.7388,-117.1704,Gas,California,Riverside,6065
Inner Harbor East Heating,39.2837,-76.5994,Gas,Maryland,Baltimore,24005
Intel Santa Clara,37.3847,-121.9638,Gas,California,Santa Clara,6085
Intercession City,28.2628,-81.5486,Gas,Florida,Polk,12105
International,61.169,-149.911,Gas,Alaska,Anchorage,2020
International Paper Franklin Mill,36.6803,-76.9128,Gas,Virginia,Franklin,51067
International Paper Riverdale Mill,32.426,-86.8709,Gas,Alabama,Dallas,1047
Interstate,39.8233,-89.5891,Gas,Illinois,Sangamon,17167
Inver Hills,44.78100000000001,-93.042,Gas,Minnesota,Dakota,27037
Ironwood LLC,40.3509,-76.3658,Gas,Pennsylvania,Lebanon,42075
Island Street Peaking Plant,44.2761,-88.2658,Gas,Wisconsin,Outagamie,55087
J D Kennedy,30.3648,-81.626,Gas,Florida,Duval,12031
J K Smith,37.8833,-84.1017,Gas,Kentucky,Clark,21049
J Lamar Stall Unit,32.5195,-93.7601,Gas,Louisiana,Caddo,22017
J Robert Massengale,33.6039,-101.8408,Gas,Texas,Lubbock,48303
J Street,40.8079,-96.7107,Gas,Nebraska,Lancaster,31109
JCO Oxides Olefins Plant,29.9635,-93.9297,Gas,Texas,Jefferson,48245
JM Shafer Generating Station,40.0986,-104.7736,Gas,Colorado,Weld,8123
Jack County,33.101,-97.9574,Gas,Texas,Wise,48497
Jack Fusco Energy Center,29.4731,-95.6244,Gas,Texas,Fort Bend,48157
Jack McDonough,33.8239,-84.4758,Gas,Georgia,Cobb,13067
Jack Watson,30.4392,-89.0286,Gas,Mississippi,Harrison,28047
Jackson Generating Station,42.2488,-84.3767,Gas,Michigan,Jackson,26075
James River Power Station,37.1086,-93.2619,Gas,Missouri,Christian,29043
Jameson Energy Center,37.9547,-100.8306,Gas,Kansas,Finney,20055
Jameson Gas Processing Plant,32.05,-100.6917,Gas,Texas,Coke,48081
Jasper,32.3594,-81.1242,Gas,South Carolina,Jasper,45053
John R Kelly,29.6461,-82.3208,Gas,Florida,Alachua,12001
John S Rainey,34.3477,-82.7745,Gas,South Carolina,Anderson,45007
John Sevier,36.3767,-82.9639,Gas,Tennessee,Hawkins,47073
Johnson County,32.3994,-97.4078,Gas,Texas,Johnson,48251
Johnsonville,36.0278,-87.9861,Gas,Tennessee,Humphreys,47085
Jones,33.5239,-101.7392,Gas,Texas,Lubbock,48303
Jonesboro City Water & Light Plant,35.8486,-90.7254,Gas,Arkansas,Craighead,5031
Juniata Locomotive Shop,40.5333,-78.3841,Gas,Pennsylvania,Blair,42013
Juniper Networks Sunnyvale,37.4069,-122.0269,Gas,California,Santa Clara,6085
Kalamazoo River Generating Station,42.2813,-85.495,Gas,Michigan,Kalamazoo,26077
Kalkaska CT #1,44.6889,-85.2019,Gas,Michigan,Kalkaska,26079
Kamin LLC Wrens Plant,33.2738,-82.4078,Gas,Georgia,Jefferson,13163
Kansas City International,39.2973,-94.6932,Gas,Missouri,Platte,29165
Kaukauna Gas Turbine,44.2762,-88.2654,Gas,Wisconsin,Outagamie,55087
Kaw,39.0867,-94.6514,Gas,Kansas,Wyandotte,20209
Kaweah Delta District Hospital,36.3275,-119.2947,Gas,California,Tulare,6107
Kellogg's - San Jose,37.3564,-121.8719,Gas,California,Santa Clara,6085
Kemper County,32.7976,-88.60600000000002,Gas,Mississippi,Kemper,28069
Kendall County Generation Facility,41.4797,-88.2581,Gas,Illinois,Grundy,17063
Kendall Square Station,42.3633,-71.0792,Gas,Massachusetts,Suffolk,25025
Kenilworth Energy Facility,40.6781,-74.2744,Gas,New Jersey,Union,34039
Kennedy International Airport Cogen,40.6417,-73.7778,Gas,New York,Nassau,36059
Kennett,36.2338,-90.0521,Gas,Missouri,Dunklin,29069
Kern Front Limited,35.5165,-119.0401,Gas,California,Kern,6029
Kern Oil & Refining Co,35.2956,-118.9183,Gas,California,Kern,6029
Kern River Cogeneration,35.4515,-118.9849,Gas,California,Kern,6029
Kern River Eastridge Cogen,35.4406,-118.9617,Gas,California,Kern,6029
Kiamichi Energy Facility,34.6831,-95.9349,Gas,Oklahoma,Pittsburg,40121
Kimberly Clark-Unit 1 2 3,41.5583,-73.4136,Gas,Connecticut,Litchfield,9005
King City Peaking,36.2248,-121.1246,Gas,California,Monterey,6053
King City Power Plant,36.225,-121.1278,Gas,California,Monterey,6053
Kingfisher,35.8575,-97.9277,Gas,Oklahoma,Kingfisher,40073
Kingman Municipal Power and Light Plant,37.3831,-98.0704,Gas,Kansas,Harper,20077
Kingsburg Cogen,36.5397,-119.5794,Gas,California,Fresno,6019
Kinmundy,38.7619,-89.0128,Gas,Illinois,Marion,17121
Kirksville,40.2245,-92.5849,Gas,Missouri,Adair,29001
Klamath Cogeneration Plant,42.1739,-121.8106,Gas,Oregon,Klamath,41035
Klamath Expansion Project,42.1727,-121.8144,Gas,Oregon,Klamath,41035
Kleen Energy Systems Project,41.5532,-72.5969,Gas,Connecticut,Middlesex,9007
Knox Lee,32.3766,-94.6415,Gas,Texas,Rusk,48401
Kyocera America Project,32.8197,-117.1405,Gas,California,San Diego,6073
Kyrene,33.3556,-111.9353,Gas,Arizona,Maricopa,4013
L L Wilkins,34.1845,-90.5627,Gas,Mississippi,Coahoma,28027
L V Sutton Combined Cycle,34.2831,-77.9853,Gas,North Carolina,Brunswick,37019
LCEC Generation LLVC,32.9781,-103.3239,Gas,New Mexico,Lea,35025
LEPA Unit No. 1,29.6911,-91.1928,Gas,Louisiana,St Mary,22101
LSP-Cottage Grove LP,44.7956,-92.9119,Gas,Minnesota,Washington,27163
LSP-Whitewater LP,42.8555,-88.7299,Gas,Wisconsin,Walworth,55127
LSU Cogen,30.4106,-91.1814,Gas,Louisiana,East Baton Rouge,22033
La Luz Energy Center,34.6161,-106.815,Gas,New Mexico,Valencia,35061
La Paloma Generating Plant,35.2956,-119.5919,Gas,California,Kern,6029
LaO Energy Systems,30.3186,-91.2325,Gas,Louisiana,Iberville,22047
Ladysmith,38.0722,-77.5133,Gas,Virginia,Spotsylvania,51177
Lagoon Cogeneration Facility,40.9872,-111.8983,Gas,Utah,Davis,49011
Lagoon Creek,35.6578,-89.3964,Gas,Tennessee,Haywood,47075
Lake Catherine,34.4341,-92.9049,Gas,Arkansas,Hot Spring,5059
Lake Charles Polymers,30.1966,-93.322,Gas,Louisiana,Calcasieu,22019
Lake Forest Hospital,42.2542,-87.8643,Gas,Illinois,Lake,17097
Lake Hubbard,32.8358,-96.5458,Gas,Texas,Dallas,48113
Lake One,34.1772,-118.3147,Gas,California,Los Angeles,6037
Lake Road (MO),39.7246,-94.8773,Gas,Kansas,Doniphan,20043
Lake Road Generating Plant,41.872,-71.8958,Gas,Connecticut,Windham,9015
Lake Side Power Plant,40.3317,-111.7542,Gas,Utah,Utah,49049
Lakefield Junction,43.7984,-94.8415,Gas,Minnesota,Cottonwood,27033
Lakin Municipal,37.942,-101.2499,Gas,Kansas,Kearny,20093
Lamar Power Project,33.6308,-95.59,Gas,Texas,Lamar,48277
Lambie Energy Center,38.2216,-121.8683,Gas,California,Solano,6095
Lange Gas Turbines,44.1203,-103.26,Gas,South Dakota,Pennington,46103
Langley Gulch Power Plant,43.9044,-116.8197,Gas,Idaho,Payette,16075
Lansing BWL REO Town Plant,42.7197,-84.5517,Gas,Michigan,Ingham,26065
Lansing Smith,30.2686,-85.7003,Gas,Florida,Bay,12005
Laredo,27.5667,-99.5089,Gas,Texas,Webb,48479
Larsen Memorial,28.0797,-81.9228,Gas,Florida,Polk,12105
Las Vegas Generating Station,36.2319,-115.1222,Gas,Nevada,Clark,32003
Lauderdale,26.0686,-80.1984,Gas,Florida,Broward,12011
Laurel,42.4305,-97.0908,Gas,Nebraska,Wayne,31179
Lawrence County Station,38.8003,-86.4511,Gas,Indiana,Lawrence,18093
Lawrenceburg Power  LLC,39.0911,-84.8669,Gas,Indiana,Dearborn,18029
Lederle Laboratories,41.0772,-74.0181,Gas,New York,Rockland,36087
Lee Combined Cycle Plant,35.3736,-78.0894,Gas,North Carolina,Wayne,37191
Lee Energy Facility,41.8287,-89.4054,Gas,Illinois,Lee,17103
Leon Creek,29.3525,-98.5761,Gas,Texas,Bexar,48029
Lewis Creek,30.4356,-95.5214,Gas,Texas,Montgomery,48339
Liberty Electric Power Plant,39.8614,-75.3358,Gas,Pennsylvania,Delaware,42045
Lieberman,32.7047,-93.9597,Gas,Louisiana,Caddo,22017
Life Technologies - Pleasanton,37.6439,-121.8842,Gas,California,Alameda,6001
Life Technologies Carlsbad,33.1372,-117.2869,Gas,California,San Diego,6073
Limon Generating Station,39.2038,-103.7005,Gas,Colorado,Lincoln,8073
Lincoln Combustion,35.4317,-81.0347,Gas,North Carolina,Lincoln,37109
Lincoln Generating Facility,41.3933,-87.9436,Gas,Illinois,Will,17197
Linde Wilmington,33.7886,-118.2294,Gas,California,Los Angeles,6037
Linden Cogen Plant,40.6322,-74.2156,Gas,New Jersey,Union,34039
Little Gypsy,30.0051,-90.4617,Gas,Louisiana,St Charles,22089
Live Oak Limited,35.4837,-119.0298,Gas,California,Kern,6029
Livingston Generating Station,45.0304,-84.7308,Gas,Michigan,Otsego,26137
Lockheed Martin Sunnyvale,37.4131,-122.0281,Gas,California,Santa Clara,6085
Lockport Energy Associates LP,43.1619,-78.745,Gas,New York,Niagara,36063
Lodi,38.1466,-121.3005,Gas,California,San Joaquin,6077
Lodi Energy Center,38.0881,-121.3875,Gas,California,San Joaquin,6077
Logan City,41.7258,-111.8433,Gas,Utah,Cache,49005
Loma Linda University Cogen,34.0504,-117.2484,Gas,California,San Bernardino,6071
Lone Star,32.9215,-94.7226,Gas,Texas,Morris,48343
Lonesome Creek Station,47.7967,-103.5786,Gas,North Dakota,McKenzie,38053
Long Beach Generation LLC,33.7641,-118.2248,Gas,California,Los Angeles,6037
Lordsburg Generating,32.3505,-108.698,Gas,New Mexico,Hidalgo,35023
Lorin Industries,43.2166,-86.2144,Gas,Michigan,Muskegon,26121
Los Angeles Refinery Wilmington,33.7686,-118.2867,Gas,California,Los Angeles,6037
Los Esteros Critical Energy Center,37.425,-121.9319,Gas,California,Santa Clara,6085
Los Medanos Energy Center,38.0301,-121.873,Gas,California,Contra Costa,6013
Lost Hills Cogeneration Plant,35.6661,-119.7669,Gas,California,Kern,6029
Lost Pines 1 Power Project,30.1478,-97.2714,Gas,Texas,Bastrop,48021
Louisa Generation Facility,38.1181,-78.2139,Gas,Virginia,Orange,51137
Louisiana 1,30.4922,-91.1864,Gas,Louisiana,West Baton Rouge,22121
Louisiana 2,30.4922,-91.1864,Gas,Louisiana,West Baton Rouge,22121
Louisiana Sugar Refining,30.0497,-90.6839,Gas,Louisiana,St James,22093
Louisiana Tech University Power Plant,32.5256,-92.6497,Gas,Louisiana,Lincoln,22061
Lower Mount Bethel Energy,40.8019,-75.1076,Gas,New Jersey,Warren,34041
Loyola University Health Plant,41.8558,-87.8356,Gas,Illinois,Cook,17031
Luna Energy Facility,32.2993,-107.7834,Gas,New Mexico,Luna,35029
MCAGCC Cogen Plant,34.2372,-116.0542,Gas,California,San Bernardino,6071
MEPI GT Facility,37.2175,-88.8661,Gas,Illinois,Massac,17127
MJMEUC Generating Station #1,39.2511,-91.6401,Gas,Missouri,Audrain,29007
MMSD Jones Island Wastewater,43.0214,-87.9014,Gas,Wisconsin,Milwaukee,55079
MPC Generating,33.8119,-83.6953,Gas,Georgia,Walton,13297
MSC Croswell,43.2664,-82.6192,Gas,Michigan,Sanilac,26151
MTHS Co-Gen Buildings,42.0019,-87.8522,Gas,Illinois,Cook,17031
MTSU Power Co-Gen Plant,35.8514,-86.365,Gas,Tennessee,Rutherford,47149
Macon Energy Center,39.749,-92.3845,Gas,Missouri,Macon,29121
Maddox,32.7142,-103.3015,Gas,New Mexico,Lea,35025
Madelia,44.0501,-94.4178,Gas,Minnesota,Watonwan,27165
Madison,39.4522,-84.4647,Gas,Ohio,Butler,39017
Magic Valley Generating Station,26.3403,-98.19,Gas,Texas,Hidalgo,48215
Magnet Cove,34.4297,-92.8317,Gas,Arkansas,Hot Spring,5059
Magnolia Power Plant,34.835,-89.2026,Gas,Mississippi,Benton,28009
Magnolia Power Project,34.1786,-118.3153,Gas,California,Los Angeles,6037
Main Street (MI),43.7325,-83.4533,Gas,Michigan,Huron,26063
Maine Independence Station,44.8242,-68.7094,Gas,Maine,Penobscot,23019
Malaga Power LLC,36.6697,-119.7404,Gas,California,Fresno,6019
Malburg,33.9986,-118.2219,Gas,California,Los Angeles,6037
Manchester Street,41.8167,-71.4042,Gas,Rhode Island,Providence,44007
Manchief Electric Generating Station,40.2171,-103.685,Gas,Colorado,Morgan,8087
Mandalay,34.2067,-119.2511,Gas,California,Ventura,6111
Mangum,34.8836,-99.5022,Gas,Oklahoma,Greer,40055
Mankato Energy Center,44.1988,-94.003,Gas,Minnesota,Blue Earth,27013
Maquoketa 1,42.0356,-90.665,Gas,Iowa,Jackson,19097
March Point Cogeneration,48.4708,-122.56,Gas,Washington,Skagit,53057
Marcus Hook Energy LP,39.807,-75.4216,Gas,Pennsylvania,Delaware,42045
Marcus Hook Refinery Cogen,39.8103,-75.4281,Gas,Pennsylvania,Delaware,42045
Mariposa Energy Project,37.7892,-121.6019,Gas,California,San Joaquin,6077
Marquette Energy Center,46.566,-87.4372,Gas,Michigan,Marquette,26103
Mars Snackfood US,41.9171,-87.7922,Gas,Illinois,Cook,17031
Mars Wrigley Confectionery US  LLC,40.8625,-74.825,Gas,New Jersey,Warren,34041
Marsh Landing Generating Station,38.0169,-121.765,Gas,California,Contra Costa,6013
Marsh Run Generation Facility,38.5283,-77.7681,Gas,Virginia,Fauquier,51061
Marshall (MI),42.2717,-84.9411,Gas,Michigan,Calhoun,26025
Marshall (MO),39.1228,-93.2064,Gas,Missouri,Saline,29195
Marshall Energy Facility,37.0286,-88.3958,Gas,Kentucky,Marshall,21157
Marshalltown,42.0474,-92.8594,Gas,Iowa,Marshall,19127
Marshalltown Generating Station,42.0433,-92.8728,Gas,Iowa,Marshall,19127
Marshfield Utilities Gas Plant,44.6347,-90.1344,Gas,Wisconsin,Wood,55141
Martin,27.0536,-80.5628,Gas,Florida,Martin,12085
Martinez Refining,38.0169,-122.1117,Gas,California,Contra Costa,6013
Mass Inst Tech Cntrl Utilities/Cogen Plt,42.361,-71.0939,Gas,Massachusetts,Middlesex,25017
Masspower,42.1575,-72.5225,Gas,Massachusetts,Hampden,25013
Maxim,37.4057,-121.9494,Gas,California,Santa Clara,6085
McCartney,37.2484,-93.1708,Gas,Missouri,Greene,29077
McClain Energy Facility,35.2977,-97.5898,Gas,Oklahoma,McClain,40087
McClellan (AR),33.5648,-92.7917,Gas,Arkansas,Ouachita,5103
McClellan (CA),38.6527,-121.3933,Gas,California,Sacramento,6067
McGrath Peaker,34.2056,-119.2469,Gas,California,Ventura,6111
McIntosh,32.3563,-81.1683,Gas,Georgia,Effingham,13103
McIntosh (AL),31.2546,-88.0299,Gas,Alabama,Mobile,1097
McIntosh Combined Cycle Facility,32.3478,-81.1817,Gas,Georgia,Effingham,13103
McKee Run,39.1762,-75.5466,Gas,Delaware,Kent,10001
McKittrick Cogen,35.3161,-119.6597,Gas,California,Kern,6029
McKittrick Limited,35.3195,-119.662,Gas,California,Kern,6029
McMeekin,34.0556,-81.2172,Gas,South Carolina,Lexington,45063
McPherson 2,38.3634,-97.6834,Gas,Kansas,McPherson,20113
McPherson 3,38.3893,-97.6111,Gas,Kansas,McPherson,20113
McWilliams,31.4003,-86.4764,Gas,Alabama,Covington,1039
Mead Rumford Cogen,44.5465,-70.5443,Gas,Maine,Oxford,23017
Meade,37.2852,-100.3324,Gas,Kansas,Meade,20119
Medical Area Total Energy Plant,42.3368,-71.1081,Gas,Massachusetts,Norfolk,25021
Merck Rahway Power Plant,40.6156,-74.2653,Gas,New Jersey,Union,34039
Merl Parr,43.0563,-92.6932,Gas,Iowa,Floyd,19067
Mesquite Generating Station Block 1,33.345,-112.8642,Gas,Arizona,Maricopa,4013
Mesquite Generating Station Block 2,33.345,-112.8642,Gas,Arizona,Maricopa,4013
Metcalf Energy Center,37.2207,-121.7457,Gas,California,Santa Clara,6085
Michigan Power LP,43.9375,-86.425,Gas,Michigan,Mason,26105
Mickleton Station,39.8119,-75.249,Gas,New Jersey,Gloucester,34015
Mid-Georgia Cogeneration Facility,32.4856,-83.6039,Gas,Georgia,Houston,13153
Mid-Set Cogeneration,35.1946,-119.571,Gas,California,Kern,6029
Middletown Coke Company  LLC,39.4722,-84.4014,Gas,Ohio,Butler,39017
Midland Cogeneration Venture,43.5861,-84.2242,Gas,Michigan,Midland,26111
Midlothian Energy Facility,32.4302,-97.0537,Gas,Texas,Johnson,48251
Midulla Generating Station,27.6417,-81.9625,Gas,Florida,Hardee,12049
Midway Peaking LLC,36.6541,-120.5797,Gas,California,Fresno,6019
Midway Sunset Cogen,35.2269,-119.6294,Gas,California,Kern,6029
Milam Gas Recovery,38.6603,-90.1317,Gas,Illinois,Madison,17119
Milan,41.8944,-76.5828,Gas,Pennsylvania,Bradford,42015
Miles City GT,46.4112,-105.7953,Gas,Montana,Custer,30017
Milford Power LP,42.1294,-71.5115,Gas,Massachusetts,Worcester,25027
Milford Power Project,41.2244,-73.0997,Gas,Connecticut,New Haven,9009
Mill Creek (SC),35.1597,-81.4306,Gas,North Carolina,Cleveland,37045
Millcreek Power Generation,37.1121,-113.5166,Gas,Utah,Washington,49053
Millennium Power,42.1123,-72.0151,Gas,Massachusetts,Worcester,25027
MillerCoors Irwindale Brewery,34.1217,-117.9383,Gas,California,Los Angeles,6037
Milton L Kapp,41.8081,-90.2336,Gas,Iowa,Clinton,19045
Minneapolis City of,39.1194,-97.7086,Gas,Kansas,Ottawa,20143
Minnesota River,44.7952,-93.581,Gas,Minnesota,Carver,27019
Mint Farm Generating Station,46.1388,-122.9855,Gas,Washington,Cowlitz,53015
Mira Loma Peaker,34.0053,-117.5604,Gas,California,Riverside,6065
Miramar Energy Facility,32.8769,-117.1664,Gas,California,San Diego,6073
Mississippi Baptist Medical Center,32.3133,-90.1797,Gas,Mississippi,Hinds,28049
Moline,41.51,-90.534,Gas,Illinois,Rock Island,17161
Mon Valley Works,40.3925,-79.8564,Gas,Pennsylvania,Allegheny,42003
Mondelez Global LLC,42.3156,-89.0356,Gas,Illinois,Winnebago,17201
Monroe Community College Plant,43.1039,-77.6103,Gas,New York,Monroe,36055
Monroe Generating Station,34.9858,-80.506,Gas,North Carolina,Union,37179
Mont Belvieu Cogeneration Unit,29.8381,-94.9007,Gas,Texas,Chambers,48071
Montana Power Station,31.8239,-106.2119,Gas,Texas,El Paso,48141
Montefieor Medical Center Moses Division,40.8814,-73.8803,Gas,New York,Bronx,36005
Montpelier Electric Generating Station,40.6206,-85.3057,Gas,Indiana,Blackford,18009
Mooreland,36.4372,-99.2254,Gas,Oklahoma,Woodward,40153
Mooseheart Power House,41.8244,-88.3331,Gas,Illinois,Kane,17089
Morgan Creek,32.3358,-100.9156,Gas,Texas,Mitchell,48335
Morgan Energy Center,34.6397,-87.0639,Gas,Alabama,Morgan,1103
Morris Cogeneration LLC,41.4119,-88.3328,Gas,Illinois,Grundy,17063
Morton Salt Rittman,40.9692,-81.7756,Gas,Ohio,Wayne,39169
Moselle,31.528,-89.3004,Gas,Mississippi,Jones,28067
Motiva Enterprises Port Arthur Refinery,29.8885,-93.951,Gas,Texas,Jefferson,48245
Mountain Creek,32.7231,-96.9358,Gas,Texas,Dallas,48113
Mountainview Generating Station,34.0818,-117.2418,Gas,California,San Bernardino,6071
Mulberry Cogeneration Facility,27.8489,-81.8775,Gas,Florida,Polk,12105
Municipal Cogen Plant,33.8247,-116.5106,Gas,California,Riverside,6065
Municipal Power Plant,42.8129,-86.0335,Gas,Michigan,Ottawa,26139
Murray Gill,37.5967,-97.4136,Gas,Kansas,Sedgwick,20173
Murray Turbine,40.67,-111.89,Gas,Utah,Salt Lake,49035
Museum of Science and Industry,41.7906,-87.5828,Gas,Illinois,Cook,17031
Mustang,35.4699,-97.675,Gas,Oklahoma,Oklahoma,40109
Mustang Station,32.9728,-102.7417,Gas,Texas,Yoakum,48501
Mustang Station Unit 4,32.9746,-102.7436,Gas,Texas,Yoakum,48501
Mystic Generating Station,42.3908,-71.0675,Gas,Massachusetts,Middlesex,25017
NAEA Lakewood LLC,40.0613,-74.1686,Gas,New Jersey,Ocean,34029
NAEA Ocean Peaking Power LLC,40.0633,-74.1672,Gas,New Jersey,Ocean,34029
NAFTA Region Olefins Complex Cogen Fac,29.9543,-93.8836,Gas,Texas,Jefferson,48245
NCSU Cates Cogeneration Plant,35.784,-78.6747,Gas,North Carolina,Wake,37183
NECCO Co-Generation,42.4137,-71.0022,Gas,Massachusetts,Suffolk,25025
NEO Freehold Gen LLC,40.2448,-74.2547,Gas,New Jersey,Monmouth,34025
NIH Cogeneration Facility,39.0,-77.0939,Gas,Maryland,Montgomery,24031
NRG Energy Center Dover,39.1495,-75.5473,Gas,Delaware,Kent,10001
NRG Energy San Diego,32.7149,-117.1689,Gas,California,San Diego,6073
NRG Rockford I,42.2386,-89.1012,Gas,Illinois,Winnebago,17201
NRG Rockford II Energy Center,42.2383,-89.1011,Gas,Illinois,Winnebago,17201
NRG Sterlington Power,32.6889,-92.0811,Gas,Louisiana,Ouachita,22073
NTC/MCRD Energy Facility,32.7353,-117.2083,Gas,California,San Diego,6073
Napoleon Peaking Station,41.4079,-84.1095,Gas,Ohio,Henry,39069
Narrows Gas Turbines Generating,40.6486,-74.0208,Gas,New York,Kings,36047
Nassau Energy Corp,40.7264,-73.5892,Gas,New York,Nassau,36059
Naval Hospital Medical Center,32.7261,-117.1464,Gas,California,San Diego,6073
Naval Station Energy Facility,32.6793,-117.1224,Gas,California,San Diego,6073
Navy Yard Peaker Station,39.8902,-75.1855,Gas,New Jersey,Gloucester,34015
Nebo Power Station,40.0614,-111.7294,Gas,Utah,Utah,49049
Nebraska City # 1,40.6806,-95.8475,Gas,Nebraska,Otoe,31131
Nebraska City # 2,40.6661,-95.8683,Gas,Nebraska,Otoe,31131
Neil Simpson Gas Turbine #2,44.285,-105.3786,Gas,Wyoming,Campbell,56005
Nelson Energy Center,41.7744,-89.6072,Gas,Illinois,White,17193
Nevada Cogen Assoc#1 GarnetVly,36.3432,-114.9207,Gas,Nevada,Clark,32003
Nevada Cogen Associates 2 Black Mountain,36.2253,-114.8783,Gas,Nevada,Clark,32003
New Castle Plant,40.9379,-80.369,Gas,Pennsylvania,Lawrence,42073
New Covert Generating Facility,42.3224,-86.2937,Gas,Michigan,Van Buren,26159
New Hampton,43.0689,-92.3201,Gas,Iowa,Chickasaw,19037
New Haven Harbor,41.284,-72.9043,Gas,Connecticut,New Haven,9009
New Mexico State University,32.1648,-106.4513,Gas,New Mexico,Dona Ana,35013
New Prague,44.5431,-93.5731,Gas,Minnesota,Le Sueur,27079
New Roads,30.7261,-91.3683,Gas,Louisiana,West Feliciana,22125
New York University Central Plant,40.7899,-73.9233,Gas,New York,New York,36061
New-Indy Ontario Mill,34.0454,-117.5402,Gas,California,Riverside,6065
Newark America Mill,42.56100000000001,-71.8488,Gas,Massachusetts,Worcester,25027
Newark Bay Cogeneration Partnership LP,40.7197,-74.13,Gas,New Jersey,Hudson,34017
Newark Energy Center,40.7072,-74.1258,Gas,New Jersey,Hudson,34017
Newgulf Cogen,29.2639,-95.8997,Gas,Texas,Wharton,48481
Newington,43.1,-70.7908,Gas,Maine,York,23031
Newman,31.9836,-106.4318,Gas,New Mexico,Dona Ana,35013
Newman (PA),40.014,-75.0528,Gas,New Jersey,Burlington,34005
Nichols,35.2834,-101.7464,Gas,Texas,Potter,48375
Nikiski Co-Generation,60.6765,-151.3777,Gas,Alaska,Kenai Peninsula,2122
Niland Gas Turbine Plant,33.2388,-115.5045,Gas,California,Imperial,6025
Nine Mile Gas Processing Plant,35.9408,-99.3033,Gas,Oklahoma,Dewey,40043
Nine Mile Point,29.9472,-90.1458,Gas,Louisiana,Jefferson,22051
Nine Springs,43.0386,-89.3586,Gas,Wisconsin,Dane,55025
Noblesville,40.0969,-85.9714,Gas,Indiana,Hamilton,18057
Nodaway,40.2877,-94.7913,Gas,Missouri,Nodaway,29147
North 1st,40.7171,-73.9664,Gas,New York,Queens,36081
North Chicago Energy Center,42.3064,-87.8519,Gas,Illinois,Lake,17097
North Denver,40.5988,-98.3886,Gas,Nebraska,Adams,31001
North Island Energy Facility,32.7052,-117.1897,Gas,California,San Diego,6073
North Loop,32.401,-111.1262,Gas,Arizona,Pima,4019
North Midway Cogen,35.2761,-119.5986,Gas,California,Kern,6029
North Ninth Street,41.9093,-89.0498,Gas,Illinois,Ogle,17141
Northeast (IN),38.0211,-87.5172,Gas,Indiana,Vanderburgh,18163
Northeast (MI),42.45,-83.0381,Gas,Michigan,Macomb,26099
Northeast (WA),47.7351,-117.3705,Gas,Washington,Spokane,53063
Northeastern,36.4317,-95.7008,Gas,Oklahoma,Rogers,40131
Northeastern Illinois University Cogen,41.9811,-87.7192,Gas,Illinois,Cook,17031
Northport,40.9236,-73.3423,Gas,New York,Suffolk,36103
Northwest Community Hospital,42.0678,-87.9935,Gas,Illinois,Cook,17031
Norton Powerhouse,42.3096,-71.8052,Gas,Massachusetts,Worcester,25027
Notch Cliff,39.4217,-76.5087,Gas,Maryland,Baltimore,24005
Nueces Bay,27.8194,-97.4192,Gas,Texas,Nueces,48355
O H Hutchings,39.6088,-84.2921,Gas,Ohio,Montgomery,39113
O W Sommers,29.3081,-98.3242,Gas,Texas,Bexar,48029
OBP Cogen,40.7549,-73.9832,Gas,New York,New York,36061
OLS Energy Chino,33.9896,-117.6809,Gas,California,San Bernardino,6071
Oak Point Cogen,29.812,-90.0084,Gas,Louisiana,Plaquemines,22075
Oakdale Renewable Energy Plant,41.7053,-91.6033,Gas,Iowa,Johnson,19103
Oberlin (KS),39.8217,-100.5289,Gas,Kansas,Decatur,20039
Oberlin (OH),41.2836,-82.2194,Gas,Ohio,Lorain,39093
Ocean State Power,42.0097,-71.6689,Gas,Rhode Island,Providence,44007
Ocean State Power II,42.0099,-71.6701,Gas,Rhode Island,Providence,44007
Ocotillo,33.4225,-111.9122,Gas,Arizona,Maricopa,4013
Odessa-Ector Power Plant,31.8403,-102.3264,Gas,Texas,Ector,48135
Oklahoma Cogeneration Project,35.4397,-97.625,Gas,Oklahoma,Oklahoma,40109
Oleander Power Project LP,28.3661,-80.7947,Gas,Florida,Brevard,12009
Olive,34.1764,-118.3147,Gas,California,Los Angeles,6037
Olive View Medical Center,34.3262,-118.4448,Gas,California,Los Angeles,6037
One Market Plaza,37.7933,-122.3942,Gas,California,San Francisco,6075
Oneta Energy Center,36.0119,-95.6967,Gas,Oklahoma,Wagoner,40145
Ontelaunee Energy Center,40.4219,-75.9356,Gas,Pennsylvania,Berks,42011
Opryland USA,36.2114,-86.6944,Gas,Tennessee,Davidson,47037
Optim Energy Altura Cogen LLC,29.8161,-95.1077,Gas,Texas,Harris,48201
Orange Cogeneration Facility,27.8708,-81.8251,Gas,Florida,Polk,12105
Orange Grove Peaking Facility,33.3594,-117.1114,Gas,California,San Diego,6073
Orchard Park,39.9109,-77.6667,Gas,Pennsylvania,Franklin,42055
Oregon Clean Energy Center,41.6679,-83.4437,Gas,Ohio,Lucas,39095
Oregon State University Energy Center,44.5643,-123.2891,Gas,Oregon,Benton,41003
Orlando Cogen LP,28.4426,-81.4123,Gas,Florida,Orange,12095
Ormond Beach,34.1292,-119.1689,Gas,California,Ventura,6111
Oroville Cogeneration LP,39.492,-121.5628,Gas,California,Butte,6007
Osage (IA),43.2797,-92.8106,Gas,Iowa,Mitchell,19131
Osage City,38.6332,-95.8277,Gas,Kansas,Osage,20139
Osawatomie,38.5322,-94.9026,Gas,Kansas,Miami,20121
Osceola (FL),28.1289,-81.0978,Gas,Florida,Osceola,12097
Osprey Energy Center Power Plant,28.0525,-81.8083,Gas,Florida,Polk,12105
Osprey Point RES,39.0592,-87.5061,Gas,Indiana,Sullivan,18153
Otsego Mill Power Plant,42.4628,-85.6961,Gas,Michigan,Allegan,26005
Ottawa,38.6156,-95.2797,Gas,Kansas,Franklin,20059
Ouachita,32.7061,-92.0683,Gas,Louisiana,Ouachita,22073
Owatonna,44.0833,-93.23,Gas,Minnesota,Steele,27147
Oxford (NE),40.2581,-99.6108,Gas,Nebraska,Furnas,31065
Oxnard,34.196,-119.1667,Gas,California,Ventura,6111
Oxnard Paper Mill,34.1414,-119.1831,Gas,California,Ventura,6111
Oyster Creek Unit VIII,28.9802,-95.342,Gas,Texas,Brazoria,48039
P L Bartow,27.8595,-82.6018,Gas,Florida,Pinellas,12103
P Plant,32.8947,-117.1981,Gas,California,San Diego,6073
PCA  Filer City Mill,44.2133,-86.2867,Gas,Michigan,Manistee,26101
PE Berkeley,37.8703,-122.2634,Gas,California,Alameda,6001
PPG Plant C Caustic,30.2264,-93.2938,Gas,Louisiana,Calcasieu,22019
PPG Powerhouse C,30.2261,-93.2952,Gas,Louisiana,Calcasieu,22019
PPS Power Plant No 1,37.0339,-88.6159,Gas,Kentucky,McCracken,21145
PSEG Burlington Generating Station,40.0766,-74.8792,Gas,New Jersey,Burlington,34005
PSEG Essex Generating Station,40.7372,-74.1206,Gas,New Jersey,Hudson,34017
PSEG Kearny Generating Station,40.7373,-74.0965,Gas,New Jersey,Hudson,34017
PSEG Linden Generating Station,40.6217,-74.2072,Gas,New York,Richmond,36085
PSEG Sewaren Generating Station,40.5558,-74.2469,Gas,New Jersey,Middlesex,34023
Pacific Ethanol Stockton Cogen Plant,37.9418,-121.3383,Gas,California,San Joaquin,6077
Packaging of America Tomahawk Mill,45.4431,-89.7342,Gas,Wisconsin,Lincoln,55069
Paddys Run,38.2236,-85.8417,Gas,Kentucky,Jefferson,21111
Palomar Energy,33.1197,-117.1178,Gas,California,San Diego,6073
Panda Liberty Generation Plant,41.7675,-76.39,Gas,Pennsylvania,Bradford,42015
Panda Patriot Generation Plant,41.1808,-76.8392,Gas,Pennsylvania,Lycoming,42081
Panda Sherman Power Station,33.5826,-96.6179,Gas,Texas,Gray,48179
Panda Temple Power Station,31.0558,-97.3172,Gas,Texas,Bell,48027
Panduit Tinley Park,41.5776,-87.7704,Gas,Illinois,Cook,17031
Panoche Energy Center,36.6514,-120.5833,Gas,California,Fresno,6019
Panoche Peaker,36.6535,-120.5783,Gas,California,Fresno,6019
Par Sterile Products,42.6837,-83.1143,Gas,Michigan,Oakland,26125
Paradise,37.2608,-86.9783,Gas,Kentucky,Muhlenberg,21177
Paragould Reciprocating,36.0242,-90.5094,Gas,Arkansas,Greene,5055
Paragould Turbine,36.0243,-90.5092,Gas,Arkansas,Greene,5055
Paramount Refinery,33.9,-118.1514,Gas,California,Los Angeles,6037
Paris (WI),42.6658,-88.0131,Gas,Wisconsin,Racine,55101
Paris Energy Center,33.6968,-95.5577,Gas,Texas,Lamar,48277
Park 500 Philip Morris USA,37.3389,-77.2806,Gas,Virginia,Hopewell City,51670
Parlin Power Plant,40.4607,-74.3272,Gas,New Jersey,Middlesex,34023
Parnassus Central Utility Plant,37.7625,-122.4567,Gas,California,San Francisco,6075
Parr GT,34.2642,-81.3308,Gas,South Carolina,Lexington,45063
Pasadena Cogeneration,29.7248,-95.1765,Gas,Texas,Harris,48201
Pastoria Energy Facility  LLC,34.9556,-118.844,Gas,California,Kern,6029
Paulsboro Refinery,39.84,-75.2583,Gas,New Jersey,Gloucester,34015
Pawtucket Power Associates,41.8615,-71.4069,Gas,Rhode Island,Providence,44007
Paxton Creek Cogeneration,40.2653,-76.8771,Gas,Pennsylvania,Dauphin,42043
Payson,40.0608,-111.7302,Gas,Utah,Utah,49049
Pea Ridge,30.5921,-87.1354,Gas,Florida,Santa Rosa,12113
Peak Power 1 Cogen,40.7511,-73.9917,Gas,New Jersey,Hudson,34017
Pearsall,28.9275,-99.0919,Gas,Texas,Frio,48163
Pedricktown Cogeneration Company LP,39.7668,-75.4238,Gas,Delaware,New Castle,10003
Pender,42.1147,-96.7054,Gas,Nebraska,Thurston,31173
Peno Creek,39.3531,-91.2295,Gas,Missouri,Pike,29163
Pensacola Florida Plant,30.5958,-87.2525,Gas,Florida,Escambia,12033
Pepperidge Farm Bloomfield,41.8693,-72.7183,Gas,Connecticut,Hartford,9003
Permian Basin,31.5839,-102.9633,Gas,Texas,Ward,48475
Perryman,39.4428,-76.2218,Gas,Maryland,Harford,24025
Perryville Power Station,32.6908,-92.0183,Gas,Louisiana,Ouachita,22073
Pfizer Groton Fuel Cell,41.3339,-72.0711,Gas,Connecticut,New London,9011
Pfizer Groton Plant,41.3315,-72.0786,Gas,Connecticut,New London,9011
Phelps Dodge Refining,31.7645,-106.3913,Gas,Texas,El Paso,48141
Philadelphia Refinery,39.9058,-75.2122,Gas,Pennsylvania,Delaware,42045
Phillips 66 Billings Refinery,45.7769,-108.4911,Gas,Montana,Yellowstone,30111
Phillips 66 Rodeo Refinery,38.0417,-122.2583,Gas,California,Contra Costa,6013
Pinckneyville,38.1114,-89.3467,Gas,Illinois,Perry,17145
Pine Bluff Energy Center,34.2181,-91.9025,Gas,Arkansas,Jefferson,5069
Pine Street,43.7402,-83.45,Gas,Michigan,Huron,26063
Pinelawn Power LLC,40.7366,-73.3884,Gas,New York,Suffolk,36103
Pioneer Generating Station,48.2325,-103.9528,Gas,North Dakota,Williams,38105
Pitchess Cogen Station,34.4639,-118.594,Gas,California,Los Angeles,6037
Pittsfield Generating LP,42.4564,-73.2181,Gas,Massachusetts,Berkshire,25003
Pixar - Emeryville,37.8329,-122.284,Gas,California,Alameda,6001
Plains End,39.8575,-105.226,Gas,Colorado,Jefferson,8059
Plains End II LLC,39.8586,-105.2256,Gas,Colorado,Jefferson,8059
Plant No 2 Freeport,40.6447,-73.5683,Gas,New York,Nassau,36059
Plant X,34.1661,-102.4114,Gas,Texas,Lamb,48279
Plaquemine Cogeneration Plant,30.3217,-91.2347,Gas,Louisiana,Iberville,22047
Pleasant Hill,41.5572,-93.5242,Gas,Iowa,Polk,19153
Pleasant Valley (MN),43.7994,-92.6829,Gas,Minnesota,Mower,27099
Pleasants Energy LLC,39.3325,-81.3642,Gas,Ohio,Washington,39167
Point Comfort Operations,28.6527,-96.56,Gas,Texas,Calhoun,48057
Polk,27.7286,-81.9897,Gas,Florida,Polk,12105
Ponca,36.7198,-97.0858,Gas,Oklahoma,Kay,40071
Ponca City,36.7198,-97.0858,Gas,Oklahoma,Kay,40071
Poplar Bluff Generating Station,36.7597,-90.3903,Gas,Missouri,Butler,29023
Port Allen (LA),30.477,-91.211,Gas,Louisiana,West Baton Rouge,22121
Port Arthur Texas Refinery,29.9649,-93.8913,Gas,Texas,Jefferson,48245
Port Comfort Power LLC,28.6481,-96.5462,Gas,Texas,Calhoun,48057
Port Everglades,26.0856,-80.1253,Gas,Florida,Broward,12011
Port Jefferson,40.9497,-73.0785,Gas,New York,Suffolk,36103
Port Neches Plant,29.9788,-93.9523,Gas,Texas,Jefferson,48245
Port Washington Generating Station,43.3842,-87.8689,Gas,Wisconsin,Ozaukee,55089
Port Westward,46.1789,-123.172,Gas,Oregon,Columbia,41009
Port Westward Unit 2,46.1789,-123.1719,Gas,Oregon,Columbia,41009
Portside Energy,41.6317,-87.1728,Gas,Indiana,Porter,18127
Potter Station 2,42.235,-70.9672,Gas,Massachusetts,Norfolk,25021
Pouch,40.6182,-74.0685,Gas,New Jersey,Hudson,34017
Power Island,29.2293,-95.1952,Gas,Texas,Brazoria,48039
Power Station 4,29.3782,-94.9219,Gas,Texas,Galveston,48167
Powerlane Plant,33.1707,-96.1264,Gas,Texas,Hunt,48231
Prairie Horizon Agri Energy,39.7611,-99.3058,Gas,Kansas,Phillips,20147
Prairies Edge Generating Facility,41.0606,-87.3071,Gas,Indiana,Newton,18111
Pratt,37.6359,-98.7433,Gas,Kansas,Pratt,20151
Pratt & Whitney,41.7483,-72.6367,Gas,Connecticut,Hartford,9003
Pratt 2,37.6356,-98.745,Gas,Kansas,Pratt,20151
Preston (IA),42.0507,-90.3942,Gas,Iowa,Jackson,19097
Preston (MN),43.6661,-92.0831,Gas,Minnesota,Fillmore,27045
Princeton (IL),41.3755,-89.4649,Gas,Illinois,Bureau,17011
Princeton University Cogeneration,40.3414,-74.6572,Gas,New Jersey,Mercer,34021
Procter & Gamble Cincinnati Plant,39.175,-84.5042,Gas,Ohio,Hamilton,39061
Procter & Gamble Mehoopany Mill,41.5743,-76.0432,Gas,Pennsylvania,Wyoming,42131
Pueblo Airport Generating Station,38.3208,-104.5264,Gas,Colorado,Pueblo,8101
Purdue University,40.4172,-86.9122,Gas,Indiana,Tippecanoe,18157
Pyramid,32.2363,-108.5494,Gas,New Mexico,Hidalgo,35023
Q Plant,32.9042,-117.2011,Gas,California,San Diego,6073
Quail Run Energy Center,31.8414,-102.315,Gas,Texas,Ector,48135
Quantum Choctaw Power LLC,33.3792,-89.2089,Gas,Mississippi,Choctaw,28019
Quantum Pasco Power LP,28.3746,-82.1889,Gas,Florida,Pasco,12101
Quindaro,39.1492,-94.6381,Gas,Kansas,Wyandotte,20209
R W Miller,32.6581,-98.3103,Gas,Texas,Palo Pinto,48363
RS Cogen,30.221,-93.2992,Gas,Louisiana,Calcasieu,22019
Raccoon Creek Energy Center,38.6996,-88.5392,Gas,Illinois,Clay,17025
Radford Army Ammunition Plant,37.1804,-80.5428,Gas,Virginia,Pulaski,51155
Ralph Green,38.7876,-94.2777,Gas,Missouri,Cass,29037
Rand Whitney CHP Plant,41.4528,-72.1361,Gas,Connecticut,New London,9011
Rariton OMP,40.5744,-74.6481,Gas,New Jersey,Somerset,34035
Ratcliffe,32.6547,-88.7622,Gas,Mississippi,Kemper,28069
Rathdrum,47.8043,-116.8673,Gas,Idaho,Kootenai,16055
Rathdrum Power LLC,47.7858,-116.9203,Gas,Idaho,Kootenai,16055
Ravenswood,40.7592,-73.9461,Gas,New York,Queens,36081
Rawhide,40.8609,-105.0212,Gas,Colorado,Larimer,8069
Ray Olinger,33.0681,-96.4525,Gas,Texas,Collin,48085
Red Bluff,40.1501,-122.2124,Gas,California,Tehama,6103
Red Cedar,41.9691,-91.6689,Gas,Iowa,Linn,19113
Red Gate Power Plant,26.4511,-98.1775,Gas,Texas,Hidalgo,48215
Red Hawk,33.3346,-112.8406,Gas,Arizona,Maricopa,4013
Red Lion Energy Center,39.6101,-75.6297,Gas,Delaware,New Castle,10003
Red Oak Power LLC,40.4487,-74.3489,Gas,New Jersey,Middlesex,34023
Redbud Power Plant,35.6856,-97.2264,Gas,Oklahoma,Oklahoma,40109
Redding Power,40.5073,-122.4233,Gas,California,Shasta,6089
Redwood Falls,44.5431,-95.1178,Gas,Minnesota,Redwood,27127
Reeves,35.171,-106.6019,Gas,New Mexico,Bernalillo,35001
Regional Wastewater Control Facility,37.9369,-121.3294,Gas,California,San Joaquin,6077
Remington,38.5442,-77.7714,Gas,Virginia,Fauquier,51061
Renaissance Power Plant,43.1864,-84.8429,Gas,Michigan,Montcalm,26117
Rensselaer City Light Plant,40.9395,-87.1545,Gas,Indiana,Jasper,18073
Rensselaer Cogen,42.6253,-73.75,Gas,New York,Rensselaer,36083
Rex Brown,32.357,-90.213,Gas,Mississippi,Hinds,28049
Rhinelander Mill,45.6394,-89.4205,Gas,Wisconsin,Oneida,55085
Rhode Island Hospital,41.8103,-71.41,Gas,Rhode Island,Providence,44007
Rhode Island State Energy Center,41.8017,-71.5186,Gas,Rhode Island,Providence,44007
Rice University,29.721,-95.3954,Gas,Texas,Harris,48201
Richard M Flynn,40.8158,-73.064,Gas,New York,Suffolk,36103
Richland,41.3052,-84.3346,Gas,Ohio,Defiance,39039
Richmond,39.8396,-84.9657,Gas,Indiana,Wayne,18177
Richmond Cogen,37.9418,-122.3909,Gas,California,Contra Costa,6013
Rifle Generating Station,39.5173,-107.7299,Gas,Colorado,Garfield,8045
Riley Generating Station,42.8333,-86.0053,Gas,Michigan,Ottawa,26139
Rio Bravo,35.026,-106.644,Gas,New Mexico,Bernalillo,35001
Rio Grande,31.8047,-106.5472,Gas,New Mexico,Dona Ana,35013
Rio Nogales Power Project,29.5931,-97.9732,Gas,Texas,Guadalupe,48187
Ripon Generation Station,37.7315,-121.116,Gas,California,San Joaquin,6077
River Hills,41.5902,-93.6195,Gas,Iowa,Polk,19153
River Road Gen Plant,45.6497,-122.7256,Gas,Washington,Clark,53011
Riverbay,40.87,-73.8244,Gas,New York,Bronx,36005
Riverside,41.54,-90.4481,Gas,Illinois,Rock Island,17161
Riverside (MN),45.0203,-93.2753,Gas,Minnesota,Anoka,27003
Riverside (OK),35.9978,-95.9567,Gas,Oklahoma,Tulsa,40143
Riverside Energy Center,42.5831,-89.0358,Gas,Wisconsin,Rock,55105
Riverside Energy Resource Center,33.9636,-117.4528,Gas,California,Riverside,6065
Riverside Generating LLC,38.1917,-82.6046,Gas,Kentucky,Lawrence,21127
Riverton,37.0726,-94.6987,Gas,Kansas,Cherokee,20021
Riverview Energy Center,38.0144,-121.7907,Gas,California,Contra Costa,6013
Riviera,26.7653,-80.0525,Gas,Florida,Palm Beach,12099
Robert A Reid,37.6461,-87.5019,Gas,Kentucky,Webster,21233
Robert Mueller Energy Center,30.305,-97.7077,Gas,Texas,Travis,48453
Robert P Mone Plant,40.9297,-84.7392,Gas,Ohio,Van Wert,39161
Robins,32.5792,-83.5822,Gas,Georgia,Houston,13153
Rock River,42.5831,-89.0259,Gas,Wisconsin,Rock,55105
RockGen Energy Center,42.9767,-89.0492,Gas,Wisconsin,Jefferson,55055
Rockingham County CT Station,36.3297,-79.8297,Gas,North Carolina,Rockingham,37157
Rocky Mountain Energy Center,40.0908,-104.5953,Gas,Colorado,Weld,8123
Rocky Road Power LLC,42.0931,-88.2397,Gas,Illinois,Kane,17089
Rohr Inc  a UTC Aerospace Systems Company,32.6325,-117.0997,Gas,California,San Diego,6073
Rokeby,40.7316,-96.7364,Gas,Nebraska,Lancaster,31109
Roll Delano,35.7342,-119.2367,Gas,California,Kern,6029
Roll Delano 2,35.7397,-119.2381,Gas,California,Kern,6029
Roll Lost Hills,35.6531,-119.8897,Gas,California,Kern,6029
Rolling Hills Generating,39.0839,-82.3328,Gas,Ohio,Jackson,39079
Roquette America,40.3892,-91.3942,Gas,Iowa,Lee,19111
Rosemary Power Station,36.4517,-77.6594,Gas,North Carolina,Halifax,37083
Roseton Generating Facility,41.5738,-73.9663,Gas,New York,Ulster,36111
Roseville,38.8107,-121.3238,Gas,California,Placer,6061
Roseville Energy Park,38.7928,-121.3811,Gas,California,Sacramento,6067
Roundtop,41.6578,-76.0492,Gas,Pennsylvania,Wyoming,42131
Rousselot Inc,42.5217,-70.9387,Gas,Massachusetts,Essex,25009
Rowan,35.7314,-80.6019,Gas,North Carolina,Rowan,37159
Rowesville Rd Plant,33.4366,-80.8474,Gas,South Carolina,Orangeburg,45075
Rubart,37.5586,-101.0994,Gas,Kansas,Haskell,20081
Rumford Power  Inc,44.5303,-70.5219,Gas,Maine,Oxford,23017
Russell City Energy Center,37.6347,-122.1338,Gas,California,Alameda,6001
Russell Downtown,38.8933,-98.8569,Gas,Kansas,Russell,20167
Russell Energy Center,38.8997,-98.8394,Gas,Kansas,Russell,20167
Rutgers Biomedical and Health Cogen,40.7393,-74.1876,Gas,New Jersey,Essex,34013
S A Carlson,42.0933,-79.2478,Gas,New York,Chautauqua,36013
S O Purdom,30.1623,-84.2007,Gas,Florida,Leon,12073
SABIC Innovative Plastics Mt. Vernon,37.9103,-87.9261,Gas,Indiana,Posey,18129
SCA Cogen 2,38.5309,-121.4001,Gas,California,Sacramento,6067
SF State University,37.7239,-122.4775,Gas,California,San Mateo,6081
SJ/SC WPCP,37.4344,-121.9464,Gas,California,Santa Clara,6085
SPA Cogen 3,38.511,-121.4735,Gas,California,Sacramento,6067
SRI International Cogen Project,37.4553,-122.1728,Gas,California,San Mateo,6081
SUNY Old Westbury College,40.7979,-73.5657,Gas,New York,Nassau,36059
Sabine,30.0242,-93.878,Gas,Texas,Orange,48361
Sabine Cogen,30.0444,-93.7714,Gas,Texas,Orange,48361
Sabine River Works,30.0552,-93.7579,Gas,Texas,Orange,48361
Sagamore Plant Cogeneration,40.4439,-86.86,Gas,Indiana,Tippecanoe,18157
Saguaro,32.5517,-111.3,Gas,Arizona,Pima,4019
Saguaro Power,36.0417,-115.0117,Gas,Nevada,Clark,32003
Saint Agnes Medical Center,36.8347,-119.7667,Gas,California,Fresno,6019
Saint Francis Hospital,42.0242,-87.6847,Gas,Illinois,Cook,17031
Saint Johns Health Center,34.0303,-118.4784,Gas,California,Los Angeles,6037
Saint Marys Hospital Power Plant,44.0979,-92.4798,Gas,Minnesota,Olmsted,27109
Salinas River Cogeneration,35.9515,-120.8679,Gas,California,San Luis Obispo,6079
Sam Bertron,29.7268,-95.0598,Gas,Texas,Harris,48201
Sam Rayburn,28.8947,-97.135,Gas,Texas,Victoria,48469
San Antonio Regional Hospital,34.1019,-117.6381,Gas,California,San Bernardino,6071
San Diego State University,32.7782,-117.0701,Gas,California,San Diego,6073
San Jacinto County Peaking Facility,30.4193,-95.0118,Gas,Texas,San Jacinto,48407
San Jacinto Steam Electric Station,29.6948,-95.0406,Gas,Texas,Harris,48201
San Jose Cogeneration,37.3361,-121.8783,Gas,California,Santa Clara,6085
Sand Hill,30.2098,-97.6129,Gas,Texas,Travis,48453
Sanford,28.8419,-81.3256,Gas,Florida,Volusia,12127
Santa Clara Cogen,37.3643,-121.9442,Gas,California,Santa Clara,6085
Santa Maria EPG,35.0408,-120.6367,Gas,California,San Luis Obispo,6079
Santa Rita Jail Fuel Cell,37.7192,-121.8869,Gas,California,Alameda,6001
Santa Rosa Energy Center,30.5664,-87.115,Gas,Florida,Santa Rosa,12113
Santan,33.3325,-111.7503,Gas,Arizona,Maricopa,4013
Saranac Facility,44.7132,-73.4557,Gas,New York,Clinton,36019
Sargent Canyon Cogeneration,35.9359,-120.8408,Gas,California,San Luis Obispo,6079
Sarpy County,41.1706,-95.9706,Gas,Nebraska,Sarpy,31153
Sayreville,40.4765,-74.3523,Gas,New Jersey,Middlesex,34023
Sayreville Cogeneration Facility,40.439,-74.3444,Gas,New Jersey,Middlesex,34023
Scattergood,33.9182,-118.4276,Gas,California,Los Angeles,6037
Selkirk Cogen,42.5744,-73.8592,Gas,New York,Albany,36001
Seminole (OK),34.9665,-96.7258,Gas,Oklahoma,Seminole,40133
Seminole Mill,30.4178,-81.5978,Gas,Florida,Duval,12031
Sentinel Energy Center  LLC,33.9342,-116.5714,Gas,California,Riverside,6065
Sewell Creek Energy,33.9486,-85.2769,Gas,Georgia,Polk,13233
Shady Hills Generating Station,28.3665,-82.5586,Gas,Florida,Pasco,12101
Shakopee Energy Park,44.7836,-93.4811,Gas,Minnesota,Scott,27139
Sharon Spring,38.8906,-101.7515,Gas,Kansas,Wallace,20199
Shawville,41.0675,-78.3662,Gas,Pennsylvania,Clearfield,42033
Sheboygan Falls,43.7518,-87.8781,Gas,Wisconsin,Sheboygan,55117
Sheepskin,42.8347,-89.1108,Gas,Wisconsin,Rock,55105
Shell Chemical,30.1875,-90.984,Gas,Louisiana,Ascension,22005
Shell Deer Park,29.7232,-95.1289,Gas,Texas,Harris,48201
Sherman Avenue,39.451,-75.0578,Gas,New Jersey,Cumberland,34011
Sherwood H Smith Jr Energy Complex,34.8392,-79.7406,Gas,North Carolina,Richmond,37153
Shoemaker,41.4278,-74.4186,Gas,New York,Orange,36071
Shute Creek Facility,41.8805,-110.0904,Gas,Wyoming,Lincoln,56023
Sidney (NE),41.1456,-102.9778,Gas,Nebraska,Cheyenne,31033
Sierra Nevada Brewing Co,39.7242,-121.8153,Gas,California,Butte,6007
Signal Hill Generating LLC,33.8625,-98.5894,Gas,Texas,Wichita,48485
Signal Hill West Unit,33.8112,-118.1756,Gas,California,Los Angeles,6037
Sikorsky Aircraft CHP,41.25,-73.0987,Gas,Connecticut,New Haven,9009
Silas Ray,25.9131,-97.5214,Gas,Texas,Cameron,48061
Silver Creek,31.6004,-89.9468,Gas,Mississippi,Jefferson,28063
Silverhawk,36.4078,-114.9606,Gas,Nevada,Clark,32003
Sim Gideon,30.1456,-97.2708,Gas,Texas,Bastrop,48021
Simonds,42.5678,-71.7739,Gas,Massachusetts,Worcester,25027
Sinclair Oil Refinery,41.7795,-107.1097,Gas,Wyoming,Carbon,56007
Sithe Independence Station,43.495,-76.4511,Gas,New York,Oswego,36075
Sky Global Power One,29.5503,-96.5378,Gas,Texas,Colorado,48089
Sloss Industries Corp,33.5682,-86.7987,Gas,Alabama,Jefferson,1073
Smarr Energy Center,32.9842,-83.8464,Gas,Georgia,Monroe,13207
Smith College Central Heating Plant,42.3125,-72.6394,Gas,Massachusetts,Hampshire,25015
Snowbird Power Plant,40.5834,-111.6539,Gas,Utah,Salt Lake,49035
Solano County Cogen Plant,38.2494,-122.0394,Gas,California,Solano,6095
Soldotna,60.4994,-150.9972,Gas,Alaska,Kenai Peninsula,2122
Solway CT,47.5446,-95.1297,Gas,Minnesota,Beltrami,27007
Sonoma County Fuel Cell,38.4667,-122.7234,Gas,California,Sonoma,6097
South Belridge Cogeneration Facility,35.4386,-119.7075,Gas,California,Kern,6029
South Energy Center,29.6383,-82.34,Gas,Florida,Alachua,12001
South Fond Du Lac,43.7353,-88.4967,Gas,Wisconsin,Fond du Lac,55039
South Harper,38.6803,-94.4824,Gas,Missouri,Cass,29037
South Oaks Hospital,40.6853,-73.4258,Gas,New York,Suffolk,36103
South Point Energy Center,34.8678,-114.5317,Gas,California,San Bernardino,6071
Southcentral Power Project,61.1674,-149.9053,Gas,Alaska,Anchorage,2020
Southeast Chicago Energy Project,41.7181,-87.5449,Gas,Indiana,Lake,18089
Southeast Kern River Cogen,35.4206,-118.9644,Gas,California,Kern,6029
Southeast Steam Plant,44.9808,-93.2497,Gas,Minnesota,Hennepin,27053
Southside Water Reclamation Plant,35.0161,-106.6697,Gas,New Mexico,Bernalillo,35001
Southwestern,35.1009,-98.3524,Gas,Oklahoma,Caddo,40015
Sowega Power,31.3869,-84.08,Gas,Georgia,Dougherty,13095
Spencer,33.1975,-97.1061,Gas,Texas,Denton,48121
Spindle Hill Energy Center,40.0922,-104.8878,Gas,Colorado,Weld,8123
Spreckels Sugar Company,32.9111,-115.5681,Gas,California,Imperial,6025
Spring Creek Energy Center,35.7422,-97.655,Gas,Oklahoma,Canadian,40017
Spring House,40.1839,-75.2342,Gas,Pennsylvania,Montgomery,42091
Springdale 1 & 2,40.5467,-79.7683,Gas,Pennsylvania,Westmoreland,42129
Springs Generating Station,33.9308,-117.2933,Gas,California,Riverside,6065
St Francis Energy Facility,36.5852,-90.1779,Gas,Missouri,Dunklin,29069
St Josephs Hospital,27.9828,-82.4919,Gas,Florida,Hillsborough,12057
Stanberry,40.2127,-94.5424,Gas,Missouri,Gentry,29075
Standby Generation Plant,30.4736,-87.2361,Gas,Florida,Escambia,12033
Starbucks - Evolution Fresh,34.0937,-117.551,Gas,California,San Bernardino,6071
Starrett City Cogen Facility,40.6492,-73.8792,Gas,New York,Kings,36047
State Line Combined Cycle,37.0659,-94.614,Gas,Kansas,Cherokee,20021
Station H,39.1067,-94.3804,Gas,Missouri,Jackson,29095
Sterling Power Plant,43.0803,-75.601,Gas,New York,Oneida,36065
Sterlington,32.7047,-92.0792,Gas,Louisiana,Ouachita,22073
Stevens Point Mill,44.3528,-89.5836,Gas,Wisconsin,Portage,55097
Stillwater Energy Center,36.1619,-97.0369,Gas,Oklahoma,Payne,40119
Stingray Facility,29.7614,-93.6086,Gas,Louisiana,Cameron,22023
Stockton,39.4362,-99.2779,Gas,Kansas,Rooks,20163
Stonewall,39.0581,-77.545,Gas,Virginia,Loudoun,51107
Stony Brook Cogen Plant,40.9168,-73.1291,Gas,New York,Suffolk,36103
Straits,45.7669,-84.7566,Gas,Michigan,Mackinac,26097
Streeter Station,42.5267,-92.4394,Gas,Iowa,Black Hawk,19013
Stryker Creek,31.9398,-94.9898,Gas,Texas,Cherokee,48073
Sturgis City Diesel Plant,41.7992,-85.4256,Gas,Michigan,St Joseph,26149
Substation 20 Plant,33.4402,-80.8417,Gas,South Carolina,Orangeburg,45075
Sugar Creek Power,39.3931,-87.5108,Gas,Indiana,Vigo,18167
Sumas Power Plant,48.9905,-122.2733,Gas,Washington,Whatcom,53073
Summit Lake,41.1136,-94.3472,Gas,Iowa,Union,19175
Summit Street Power Plant,41.1431,-81.3408,Gas,Ohio,Portage,39133
Sumpter,42.167,-83.5318,Gas,Michigan,Wayne,26163
Sun Peak Generating Station,36.1375,-115.0339,Gas,Nevada,Clark,32003
Sundance,32.9285,-111.5899,Gas,Arizona,Pinal,4021
Sunrise Power LLC,35.2097,-119.585,Gas,California,Kern,6029
Sutter Energy Center,39.0531,-121.6959,Gas,California,Sutter,6101
Suwannee River,30.3764,-83.1806,Gas,Florida,Suwannee,12121
Sweatt,32.2925,-88.7461,Gas,Mississippi,Lauderdale,28075
Sweeny Cogen Facility,29.0728,-95.745,Gas,Texas,Brazoria,48039
Sycamore (IA),41.6722,-93.6769,Gas,Iowa,Polk,19153
Sycamore (WI),43.1133,-89.3128,Gas,Wisconsin,Dane,55025
Sycamore Cogeneration,35.4526,-118.9853,Gas,California,Kern,6029
Syl Laskin,47.5306,-92.1619,Gas,Minnesota,St Louis,27137
Sylvarena,31.9821,-89.4127,Gas,Mississippi,Smith,28129
Synata Hugoton,37.1808,-101.3867,Gas,Kansas,Stevens,20189
Syracuse # 2,40.6756,-96.1778,Gas,Nebraska,Otoe,31131
T B Simon Power Plant,42.7178,-84.4836,Gas,Michigan,Ingham,26065
T H Wharton,29.9417,-95.5306,Gas,Texas,Harris,48201
T J Labbe Electric Generating,30.2554,-92.0433,Gas,Louisiana,Lafayette,22055
TECO CHP-1,29.7035,-95.3983,Gas,Texas,Harris,48201
THUMS,33.7684,-118.2141,Gas,California,Los Angeles,6037
TNSG North Plant,70.2353,-148.3836,Gas,Alaska,North Slope,2185
TNSG South Plant,70.2,-148.4667,Gas,Alaska,North Slope,2185
TVA Southaven Combined Cycle,34.9939,-90.0378,Gas,Mississippi,De Soto,28033
Taft 26C Cogen,35.1133,-119.4706,Gas,California,Kern,6029
Taft Cogeneration Facility,29.9888,-90.4599,Gas,Louisiana,St Charles,22089
Tait Electric Generating Station,39.7277,-84.2095,Gas,Ohio,Montgomery,39113
Talbot County Energy,32.5892,-84.6917,Gas,Georgia,Talbot,13263
TalenEnergy Martins Creek,40.7978,-75.1054,Gas,New Jersey,Warren,34041
Tanner Street Generation,42.6321,-71.3132,Gas,Massachusetts,Middlesex,25017
Taylor Farms Salinas,36.6575,-121.6233,Gas,California,Monterey,6053
Teche,29.8222,-91.5425,Gas,Louisiana,St Mary,22101
Temple SEGF,39.98,-75.1506,Gas,Pennsylvania,Philadelphia,42101
Tenaska Central Alabama Generating Stn,32.6497,-86.74,Gas,Alabama,Chilton,1021
Tenaska Frontier Generation Station,30.5924,-95.9178,Gas,Texas,Grimes,48185
Tenaska Gateway Generating Station,32.0178,-94.6197,Gas,Texas,Rusk,48401
Tenaska Georgia Generation Facility,33.3516,-84.9996,Gas,Georgia,Heard,13149
Tenaska Lindsay Hill Generating Station,32.6514,-86.7386,Gas,Alabama,Chilton,1021
Tenaska Virginia Generating Station,37.8667,-78.3813,Gas,Virginia,Fluvanna,51065
Tenet Hospital,31.7697,-106.5014,Gas,Texas,El Paso,48141
Terry Bundy Generating Station,40.9097,-96.6131,Gas,Nebraska,Lancaster,31109
Tesoro Kenai Cogeneration Plant,60.677,-151.3815,Gas,Alaska,Kenai Peninsula,2122
Tesoro Mandan Cogeneration Plant,46.8492,-100.8808,Gas,North Dakota,Morton,38059
Tesoro SLC Cogeneration Plant,40.7931,-111.9038,Gas,Utah,Salt Lake,49035
Texas City Power Plant,29.3787,-94.9438,Gas,Texas,Galveston,48167
Texas Petrochemicals,29.6981,-95.2547,Gas,Texas,Harris,48201
The Andersons Albion Ethanol LLC,42.2561,-84.7883,Gas,Michigan,Calhoun,26025
The Methodist Hospital  Gas Turbine,29.7094,-95.4003,Gas,Texas,Harris,48201
Theodore Cogen Facility,30.5254,-88.1285,Gas,Alabama,Mobile,1097
Thermo Greeley,40.4406,-104.6863,Gas,Colorado,Weld,8123
Thetford,43.1567,-83.6286,Gas,Michigan,Genesee,26049
Thomas A Smith Energy Facility,34.7094,-84.9175,Gas,Georgia,Whitfield,13313
