Site Name,Site Score,State,normalized_county,Status,Latitude,Longitude
Teledyne Semiconductor,35.35,California,Santa Clara,NPL Site,37.4108,-122.0797
"TRW Microwave, Inc. (Building 825)",31.94,California,Santa Clara,NPL Site,37.3846,-122.0085
Fairchild Semiconductor Corp. (Mountain View Plant),31.94,California,Santa Clara,NPL Site,37.4012,-122.0542
Sacramento Army Depot,44.46,California,Sacramento,NPL Site,38.520281,-121.3958
Intel Corp. (Mountain View Plant),29.76,California,Santa Clara,NPL Site,37.3962,-122.0566
Raytheon Corp.,29.76,California,Santa Clara,NPL Site,37.3975,-122.0533
Moffett Naval Air Station,29.49,California,Santa Clara,NPL Site,37.411389,-122.0522
"Waste Disposal, Inc.",34.6,California,Los Angeles,NPL Site,33.95,-118.055
Riverbank Army Ammunition Plant,63.94,California,Stanislaus,NPL Site,37.71695,-120.9181
Watkins-Johnson Co. (Stewart Division Plant),28.9,California,Santa Cruz,NPL Site,37.051111,-122.029028
Fresno Municipal Sanitary Landfill,35.57,California,Fresno,NPL Site,36.704169,-119.8261
Barstow Marine Corps Logistics Base,37.93,California,San Bernardino,NPL Site,34.878331,-116.9389
United Heckathorn Co.,38.49,California,Contra Costa,NPL Site,37.9226,-122.3654
"Brown & Bryant, Inc. (Arvin Plant)",53.36,California,Kern,NPL Site,35.203061,-118.822
Newmark Ground Water Contamination,35.57,California,San Bernardino,NPL Site,34.171811,-117.3131
Hewlett-Packard (620-640 Page Mill Road),29.76,California,Santa Clara,NPL Site,37.4214,-122.1434
Fort Ord,42.24,California,Monterey,NPL Site,36.625,-121.75
"CTS Printex, Inc.",33.62,California,Santa Clara,NPL Site,37.4165,-122.0872
Camp Pendleton Marine Corps Base,33.79,California,San Diego,NPL Site,33.306669,-117.3408
Intersil Inc./Siemens Components,28.9,California,Santa Clara,NPL Site,37.3361,-122.0015
Sulphur Bank Mercury Mine,44.42,California,Lake,NPL Site,39.00555,-122.6703
March Air Force Base,31.94,California,Riverside,NPL Site,33.906389000000004,-117.2557
"Spectra-Physics, Inc.",37.2,California,Santa Clara,NPL Site,37.40805,-122.0786
Crazy Horse Sanitary Landfill,37.93,California,Monterey,NPL Site,36.8026,-121.6186
El Toro Marine Corps Air Station,37.43,California,Orange,NPL Site,33.676669,-117.7176
George Air Force Base,33.62,California,San Bernardino,NPL Site,34.595,-117.3833
"Advanced Micro Devices, Inc. (Building 915)",31.94,California,Santa Clara,NPL Site,37.3868,-122.0066
"Synertek, Inc. (Building 1)",31.94,California,Santa Clara,NPL Site,37.3773,-121.9719
Modesto Ground Water Contamination,28.9,California,Stanislaus,NPL Site,37.6591,-120.9964
Jasco Chemical Corp.,35.36,California,Santa Clara,NPL Site,37.3988,-122.0882
Pacific Coast Pipe Lines,46.01,California,Ventura,NPL Site,34.404169,-118.9028
Hunters Point Naval Shipyard,48.77,California,San Francisco,NPL Site,37.72229,-122.36731999999999
Lawrence Livermore National Laboratory (Site 300) (USDOE),31.58,California,Alameda,NPL Site,37.644306,-121.57666699999999
Tracy Defense Depot (USARMY),37.16,California,San Joaquin,NPL Site,37.715281,-121.3911
Travis Air Force Base,29.49,California,Solano,NPL Site,38.26445,-121.9332
Edwards Air Force Base,33.62,California,Kern,NPL Site,34.949439,-117.8857
Industrial Waste Processing,51.13,California,Fresno,NPL Site,36.8425,-119.8094
McCormick & Baxter Creosoting Co.,74.86,California,San Joaquin,NPL Site,37.947851,-121.30663500000001
Jet Propulsion Laboratory (NASA),50.0,California,Los Angeles,NPL Site,34.201184999999995,-118.16743400000001
Concord Naval Weapons Station,50.0,California,Contra Costa,NPL Site,38.049444,-122.0
Laboratory for Energy-Related Health Research/Old Campus Landfill (USDOE),50.0,California,Solano,NPL Site,38.51875,-121.75125
Frontier Fertilizer,35.04,California,Yolo,NPL Site,38.553055,-121.67333300000001
Pemaco Maywood,45.23,California,Los Angeles,NPL Site,33.985417,-118.17125
Lava Cap Mine,33.66,California,Nevada,NPL Site,39.228056,-120.96986100000001
Omega Chemical Corporation,30.94,California,Los Angeles,NPL Site,33.969722,-118.042222
Alameda Naval Air Station,50.0,California,Alameda,NPL Site,37.788889000000005,-122.33
Leviathan Mine,50.0,California,Alpine,NPL Site,38.703889000000004,-119.65611100000001
Alark Hard Chrome,50.5,California,Riverside,NPL Site,33.991886,-117.367186
Del Amo,47.12,California,Los Angeles,NPL Site,33.846639,-118.289472
Cooper Drum Company,50.0,California,Los Angeles,NPL Site,33.946971999999995,-118.179694
Casmalia Resources,30.0,California,Santa Barbara,NPL Site,34.863125,-120.544303
AMCO Chemical,50.0,California,Alameda,NPL Site,37.8025,-122.29375
Fairchild Semiconductor Corp. (South San Jose Plant),44.46,California,Santa Clara,NPL Site,37.2326,-121.7748
Lorentz Barrel & Drum Co.,33.94,California,Santa Clara,NPL Site,37.318611,-121.8644
J.H. Baxter & Co.,34.78,California,Siskiyou,NPL Site,41.4364,-122.3707
Klau/Buena Vista Mine,50.0,California,San Luis Obispo,NPL Site,35.6259,-120.8967
Halaco Engineering Company,58.31,California,Ventura,NPL Site,34.138889,-119.181944
"Rockets, Fireworks, and Flares (RFF)",50.0,California,San Bernardino,NPL Site,34.153683,-117.41656699999999
New Idria Mercury Mine,31.66,California,San Benito,NPL Site,36.418392,-120.67251100000001
Blue Ledge Mine,50.28,California,Siskiyou,NPL Site,41.959961,-123.10744199999999
Jervis B. Webb Co.,45.76,California,Los Angeles,NPL Site,33.950325,-118.178017
Southern Avenue Industrial Area,50.0,California,Los Angeles,NPL Site,33.946178,-118.17692199999999
Argonaut Mine,58.31,California,Amador,NPL Site,38.353333,-120.78575
Copper Bluff Mine,50.0,California,Humboldt,NPL Site,41.109972,-123.686
California Gulch,55.84,Colorado,Lake,NPL Site,39.236111,-106.2692
"Central City, Clear Creek",51.39,Colorado,Clear Creek,NPL Site,39.75,-105.5
Denver Radium Site,44.11,Colorado,Denver,NPL Site,39.716669,-105.0
Marshall Landfill,0.0,Colorado,Boulder,NPL Site,39.95,-105.2
Broderick Wood Products,35.13,Colorado,Adams,NPL Site,39.8148,-104.9989
Lincoln Park,31.31,Colorado,Fremont,NPL Site,38.4,-105.2333
Lowry Landfill,48.36,Colorado,Arapahoe,NPL Site,39.643330999999996,-104.7083
Eagle Mine,47.19,Colorado,Eagle,NPL Site,39.533331,-106.3917
Uravan Uranium Project (Union Carbide Corp.),43.53,Colorado,Montrose,NPL Site,38.366661,-108.7483
Rocky Flats Plant (USDOE),64.32,Colorado,Jefferson,NPL Site,39.894169,-105.2017
Rocky Mountain Arsenal (USARMY),58.15,Colorado,Adams,NPL Site,39.835561,-104.8842
Chemical Sales Co.,37.93,Colorado,Denver,NPL Site,39.780831,-104.9136
Air Force Plant PJKS,42.93,Colorado,Jefferson,NPL Site,39.514219,-105.1337
Summitville Mine,50.0,Colorado,Grand,NPL Site,37.43,-106.585
Vasquez Boulevard and I-70,50.0,Colorado,Denver,NPL Site,39.791667,-104.95833300000001
Captain Jack Mill,50.56,Colorado,Boulder,NPL Site,40.055833,-105.503611
Standard Mine,50.0,Colorado,Gunnison,NPL Site,38.879166999999995,-107.07388999999999
Nelson Tunnel/Commodore Waste Rock,48.03,Colorado,Mineral,NPL Site,37.870833000000005,-106.94
Colorado Smelter,50.0,Colorado,Pueblo,NPL Site,38.2491,-104.60799999999999
Bonita Peak Mining District,50.0,Colorado,San Juan,NPL Site,37.904030999999996,-107.616619
Beacon Heights Landfill,46.77,Connecticut,New Haven,NPL Site,41.43195,-73.03528100000001
"Laurel Park, Inc.",0.0,Connecticut,New Haven,NPL Site,41.476939,-73.07166099999999
Solvents Recovery Service of New England,44.93,Connecticut,Hartford,NPL Site,41.6196,-72.878
Yaworski Waste Lagoon,36.72,Connecticut,Windham,NPL Site,41.66945,-71.964161
Kellogg-Deering Well Field,39.92,Connecticut,Fairfield,NPL Site,41.13055,-73.43195
Durham Meadows,33.94,Connecticut,Middlesex,NPL Site,41.48111,-72.681388
Linemaster Switch Corp.,33.71,Connecticut,Windham,NPL Site,41.940560999999995,-71.966939
Barkhamsted-New Hartford Landfill,38.05,Connecticut,Litchfield,NPL Site,41.980556,-73.04722199999999
Gallup's Quarry,46.29,Connecticut,Windham,NPL Site,41.665281,-71.924161
Precision Plating Corp.,49.1,Connecticut,Tolland,NPL Site,41.84975,-72.447911
New London Submarine Base,36.53,Connecticut,New London,NPL Site,41.400139,-72.08708100000001
"Raymark Industries, Inc.",0.0,Connecticut,Fairfield,NPL Site,41.201278,-73.117222
Scovill Industrial Landfill,50.0,Connecticut,New Haven,NPL Site,41.550389,-73.010639
Army Creek Landfill,69.92,Delaware,New Castle,NPL Site,39.653061,-75.608331
Delaware Sand & Gravel Landfill,46.6,Delaware,New Castle,NPL Site,39.651389,-75.60278100000001
Delaware City PVC Plant,30.55,Delaware,New Castle,NPL Site,39.586110999999995,-75.649439
"Harvey & Knott Drum, Inc.",30.77,Delaware,New Castle,NPL Site,39.573331,-75.770839
Tybouts Corner Landfill,0.0,Delaware,New Castle,NPL Site,39.6125,-75.653339
NCR Corp. (Millsboro Plant),38.21,Delaware,Sussex,NPL Site,38.5775,-75.283061
Halby Chemical Co.,30.9,Delaware,New Castle,NPL Site,39.718610999999996,-75.537219
"Standard Chlorine of Delaware, Inc.",35.42,Delaware,New Castle,NPL Site,39.599581,-75.63583100000001
Dover Gas Light Co.,35.57,Delaware,Kent,NPL Site,39.1558,-75.5277
"E.I. du Pont de Nemours & Co., Inc. (Newport Pigment Plant Landfill)",51.91,Delaware,New Castle,NPL Site,39.708331,-75.609169
"Koppers Co., Inc. (Newport Plant)",33.56,Delaware,New Castle,NPL Site,39.704719,-75.624169
Dover Air Force Base,35.89,Delaware,Kent,NPL Site,39.127781,-75.466669
"Chem-Solv, Inc.",37.93,Delaware,Kent,NPL Site,39.2216,-75.5764
Newark South Ground Water Plume,50.0,Delaware,New Castle,NPL Site,39.653889,-75.735
Hockessin Groundwater,50.0,Delaware,New Castle,NPL Site,39.78752,-75.696513
American Creosote Works (Pensacola Plant),58.41,Florida,Escambia,NPL Site,30.404719,-87.236661
Florida Steel Corp.,45.92,Florida,Martin,NPL Site,27.041110999999997,-80.506111
Hollingsworth Solderless Terminal,44.53,Florida,Broward,NPL Site,26.198331,-80.15221899999999
Miami Drum Services,53.56,Florida,Miami-Dade,NPL Site,25.837219,-80.313061
Pickettville Road Landfill,42.94,Florida,Duval,NPL Site,30.368610999999998,-81.738889
Reeves Southeastern Galvanizing Corp.,58.75,Florida,Hillsborough,NPL Site,27.9725,-82.341939
Sapp Battery Salvage,47.7,Florida,Jackson,NPL Site,30.728331,-85.3925
Sherwood Medical Industries,39.83,Florida,Volusia,NPL Site,29.060831,-81.265
Taylor Road Landfill,51.37,Florida,Hillsborough,NPL Site,28.009719,-82.29305
Tower Chemical Co.,44.03,Florida,Lake,NPL Site,28.551389,-81.684719
Zellwood Ground Water Contamination,51.91,Florida,Orange,NPL Site,28.73195,-81.613331
Cabot/Koppers,36.69,Florida,Alachua,NPL Site,29.675,-82.323061
Peak Oil Co./Bay Drum Co.,58.15,Florida,Hillsborough,NPL Site,27.9708,-82.3404
"Pepper Steel & Alloys, Inc.",31.92,Florida,Miami-Dade,NPL Site,25.873611,-80.35333100000001
Sydney Mine Sludge Ponds,38.93,Florida,Hillsborough,NPL Site,27.929166,-82.209166
Wingate Road Municipal Incinerator Dump,31.72,Florida,Broward,NPL Site,26.1444,-80.1847
Piper Aircraft Corp./Vero Beach Water & Sewer Department,31.13,Florida,Indian River,NPL Site,27.647499,-80.415555
Harris Corp. (Palm Bay Plant),35.57,Florida,Brevard,NPL Site,28.030281,-80.601389
Petroleum Products Corp.,40.11,Florida,Broward,NPL Site,25.9926,-80.1696
"Anodyne, Inc.",31.03,Florida,Miami-Dade,NPL Site,25.923189,-80.221531
Airco Plating Co.,42.47,Florida,Miami-Dade,NPL Site,25.8152,-80.2559
Madison County Sanitary Landfill,37.93,Florida,Madison,NPL Site,30.501110999999998,-83.39375
Agrico Chemical Co.,44.98,Florida,Escambia,NPL Site,30.4512,-87.2256
Jacksonville Naval Air Station,32.08,Florida,Duval,NPL Site,30.221109999999996,-81.682777
Cecil Field Naval Air Station,31.99,Florida,Duval,NPL Site,30.238609999999998,-81.902777
Pensacola Naval Air Station,42.4,Florida,Escambia,NPL Site,30.357221999999997,-87.283054
Homestead Air Force Base,42.4,Florida,Miami-Dade,NPL Site,25.489444,-80.39694399999999
Stauffer Chemical Co. (Tarpon Springs),50.0,Florida,Pinellas,NPL Site,28.166665999999996,-82.775694
Helena Chemical Co. (Tampa Plant),30.19,Florida,Hillsborough,NPL Site,27.963931,-82.374813
Whiting Field Naval Air Station,50.0,Florida,Santa Rosa,NPL Site,30.709721999999996,-87.02041700000001
Chevron Chemical Co. (Ortho Division),50.0,Florida,Orange,NPL Site,28.578889,-81.408889
Escambia Wood - Pensacola,50.0,Florida,Escambia,NPL Site,30.4553,-87.2317
MRI Corp (Tampa),37.62,Florida,Hillsborough,NPL Site,27.96,-82.35583299999999
Stauffer Chemical Co (Tampa),59.81,Florida,Hillsborough,NPL Site,27.963055999999998,-82.37055600000001
Tyndall Air Force Base,50.0,Florida,Bay,NPL Site,30.0875,-85.586667
Florida Petroleum Reprocessors,50.0,Florida,Broward,NPL Site,26.081944,-80.215556
Oak Grove Village Well,50.0,Missouri,Franklin,NPL Site,38.220971999999996,-91.149461
Pagel's Pit,45.91,Illinois,Winnebago,NPL Site,42.158331,-89.056661
Newton County Mine Tailings,50.0,Missouri,Newton,NPL Site,36.9921,-94.3848
Madison County Mines,58.41,Missouri,Madison,NPL Site,37.546110999999996,-90.276111
Conservation Chemical Co.,29.85,Missouri,Jackson,NPL Site,39.1279,-94.4722
Annapolis Lead Mine,56.67,Missouri,Iron,NPL Site,37.355556,-90.675
Washington County Lead District - Old Mines,76.81,Missouri,Washington,NPL Site,38.075278000000004,-90.738333
Washington County Lead District - Potosi,50.0,Missouri,Washington,NPL Site,37.9399,-90.7724
Washington County Lead District - Richwoods,76.81,Missouri,Washington,NPL Site,38.16615,-90.814264
Southwest Jefferson County Mining,70.71,Missouri,Jefferson,NPL Site,38.186794,-90.758975
Vienna Wells,50.0,Missouri,Maries,NPL Site,38.189597,-91.944158
Washington County Lead District - Furnace Creek,50.0,Missouri,Washington,NPL Site,37.840531,-90.79955600000001
Compass Plaza Well TCE,50.0,Missouri,Greene,NPL Site,37.109009,-93.083168
Sporlan Valve Plant #1,35.15,Missouri,Franklin,NPL Site,38.5519,-91.00668
"Chemfax, Inc.",38.4,Mississippi,Harrison,NPL Site,30.428888,-89.089166
"American Creosote Works, Inc.",62.2,Mississippi,Winston,NPL Site,33.111111,-89.05833299999999
Picayune Wood Treating,51.03,Mississippi,Pearl River,NPL Site,30.524444,-89.689722
Sonford Products,31.66,Mississippi,Rankin,NPL Site,32.29251,-90.14222
Kerr-McGee Chemical Corp - Columbus,52.47,Mississippi,Lowndes,NPL Site,33.509767,-88.409686
Red Panther Chemical Company,39.43,Mississippi,Coahoma,NPL Site,34.187408000000005,-90.561625
Southeastern Wood Preserving,48.03,Mississippi,Madison,NPL Site,32.618061,-90.018189
Mississippi Phosphates Corporation,50.0,Mississippi,Jackson,NPL Site,30.372103000000003,-88.491006
Rockwell International Wheel & Trim,50.0,Mississippi,Grenada,NPL Site,33.803244,-89.801661
Anaconda Co. Smelter,58.71,Montana,Deer Lodge,NPL Site,46.116661,-112.915
Libby Ground Water Contamination,37.67,Montana,Lincoln,NPL Site,48.38,-115.5389
Milltown Reservoir Sediments,43.78,Montana,Missoula,NPL Site,46.866661,-113.8667
Silver Bow Creek/Butte Area,63.76,Montana,Deer Lodge,NPL Site,46.038999999999994,-112.7948
East Helena Site,61.65,Montana,Lewis and Clark,NPL Site,46.581669,-111.9183
Idaho Pole Co.,38.29,Montana,Gallatin,NPL Site,45.688331,-111.0217
Mouat Industries,31.66,Montana,Stillwater,NPL Site,45.635,-109.2475
Montana Pole and Treating,33.03,Montana,Silver Bow,NPL Site,45.99,-112.5483
Basin Mining Area,61.15,Montana,Jefferson,NPL Site,46.272778,-112.263333
Upper Tenmile Creek Mining Area,50.0,Montana,Lewis and Clark,NPL Site,46.482083,-112.245139
Lockwood Solvent Ground Water Plume,45.69,Montana,Yellowstone,NPL Site,45.803611,-108.455
Barker Hughesville Mining District,50.0,Montana,Cascade,NPL Site,47.083333,-110.630278
Carpenter Snow Creek Mining District,50.0,Montana,Cascade,NPL Site,46.961389000000004,-110.72583300000001
Libby Asbestos,0.0,Montana,Lincoln,NPL Site,48.391528,-115.551111
Flat Creek IMM,51.33,Montana,Mineral,NPL Site,47.240278,-114.852778
ACM Smelter and Refinery,54.26,Montana,Cascade,NPL Site,47.528603000000004,-111.246467
Anaconda Aluminum Co Columbia Falls Reduction Plant,68.39,Montana,Flathead,NPL Site,48.387875,-114.130297
Bypass 601 Ground Water Contamination,37.93,North Carolina,Cabarrus,NPL Site,35.4096,-80.6093
Jadco-Hughes Facility,42.0,North Carolina,Gaston,NPL Site,35.275831,-81.041111
"North Carolina State University (Lot 86, Farm Unit #1)",48.36,North Carolina,Wake,NPL Site,35.801815999999995,-78.713588
Celanese Corp. (Shelby Fiber Operations),48.98,North Carolina,Cleveland,NPL Site,35.208889,-81.528339
Cape Fear Wood Preserving,34.09,North Carolina,Cumberland,NPL Site,35.04945,-79.020839
Aberdeen Pesticide Dumps,52.7,North Carolina,Moore,NPL Site,35.1384,-79.4472
Charles Macon Lagoon & Drum Storage,47.1,North Carolina,Richmond,NPL Site,34.8925,-79.8375
Carolina Transformer Co.,33.76,North Carolina,Cumberland,NPL Site,35.063331,-78.845
"Benfield Industries, Inc.",31.67,North Carolina,Haywood,NPL Site,35.477781,-83.00416899999999
Potter's Septic Tank Service Pits,29.14,North Carolina,Brunswick,NPL Site,34.2846,-78.1578
Camp Lejeune Military Reservation,33.13,North Carolina,Onslow,NPL Site,34.717781,-77.342919
"Koppers Co., Inc. (Morrisville Plant)",41.89,North Carolina,Wake,NPL Site,35.8463,-78.8406
ABC One Hour Cleaners,29.11,North Carolina,Onslow,NPL Site,34.7414,-77.3666
Geigy Chemical Corp. (Aberdeen Plant),33.02,North Carolina,Moore,NPL Site,35.126111,-79.406669
"FCX, Inc. (Statesville Plant)",37.93,North Carolina,Iredell,NPL Site,35.7865,-80.9163
"FCX, Inc. (Washington Plant)",40.39,North Carolina,Beaufort,NPL Site,35.559581,-77.07445
JFD Electronics/Channel Master,39.03,North Carolina,Granville,NPL Site,36.299719,-78.60638900000001
"Chemtronics, Inc.",30.16,North Carolina,Buncombe,NPL Site,35.625,-82.434719
General Electric Co/Shepherd Farm,70.71,North Carolina,Henderson,NPL Site,35.272222,-82.411111
Cherry Point Marine Corps Air Station,70.71,North Carolina,Craven,NPL Site,34.9,-76.8917
Davis Park Road TCE,33.5,North Carolina,Gaston,NPL Site,35.231667,-81.218889
North Belmont PCE,50.0,North Carolina,Gaston,NPL Site,35.273472,-81.05125
Barber Orchard,70.71,North Carolina,Haywood,NPL Site,35.445833,-83.063889
Ward Transformer,50.0,North Carolina,Wake,NPL Site,35.901944,-78.773611
Ram Leather Care,40.43,North Carolina,Mecklenburg,NPL Site,35.228056,-80.606806
National Starch & Chemical Corp.,46.51,North Carolina,Rowan,NPL Site,35.6322,-80.5412
Sigmon's Septic Tank Service,30.03,North Carolina,Iredell,NPL Site,35.713611,-80.974583
Blue Ridge Plating Company,38.67,North Carolina,Buncombe,NPL Site,35.462371999999995,-82.528358
Aberdeen Contaminated Ground Water,50.0,North Carolina,Moore,NPL Site,35.1224,-79.4025
GMH Electronics,50.0,North Carolina,Person,NPL Site,36.416722,-78.941625
Ore Knob Mine,50.0,North Carolina,Ashe,NPL Site,36.410011,-81.324606
Kerr-McGee Chemical Corp - Navassa,50.0,North Carolina,Brunswick,NPL Site,34.247222,-77.99902800000001
Wright Chemical Corporation,48.03,North Carolina,Columbus,NPL Site,34.3284,-78.2051
Horton Iron and Metal,48.03,North Carolina,New Hanover,NPL Site,34.26665,-77.954083
"CTS of Asheville, Inc.",38.4,North Carolina,Buncombe,NPL Site,35.493075,-82.505953
Holcomb Creosote Co,48.0,North Carolina,Yadkin,NPL Site,36.157875,-80.675236
Cristex Drum,48.0,North Carolina,Granville,NPL Site,36.2972,-78.6067
Hemphill Road TCE,50.0,North Carolina,Gaston,NPL Site,35.197933,-81.189852
Cornhusker Army Ammunition Plant,51.13,Nebraska,Hall,NPL Site,40.923331,-98.4925
Hastings Ground Water Contamination,42.24,Nebraska,Adams,NPL Site,40.583331,-98.38333100000001
Nebraska Ordnance Plant (Former),31.94,Nebraska,Saunders,NPL Site,41.176669,-96.453331
10th Street Site,28.9,Nebraska,Platte,NPL Site,41.426561,-97.362219
Cleburn Street Well,50.0,Nebraska,Hall,NPL Site,40.925139,-98.347778
Sherwood Medical Co.,50.0,Nebraska,Madison,NPL Site,41.993611,-97.421389
Bruno Co-op Association/Associated Properties,50.0,Nebraska,Butler,NPL Site,41.284721999999995,-96.959722
Ogallala Ground Water Contamination,50.0,Nebraska,Keith,NPL Site,41.123889,-101.736111
Omaha Lead,50.0,Nebraska,Douglas,NPL Site,41.267778,-95.929722
"American Anodco, Inc.",57.99,Michigan,Ionia,NPL Site,42.9875,-85.03
J & L Landfill,31.65,Michigan,Oakland,NPL Site,42.6556,-83.0959
Joliet Army Ammunition Plant (Manufacturing Area),32.08,Illinois,Will,NPL Site,41.3762,-88.1563
"Barrels, Inc.",42.24,Michigan,Ingham,NPL Site,42.749031,-84.54333100000001
"Parsons Chemical Works, Inc.",31.32,Michigan,Eaton,NPL Site,42.7547,-84.7677
"Bofors Nobel, Inc.",53.42,Michigan,Muskegon,NPL Site,43.209364,-86.11746
Kaydon Corp.,34.21,Michigan,Muskegon,NPL Site,43.2007,-86.2908
Solitron Microwave,50.0,Florida,Martin,NPL Site,27.136667,-80.199167
Adam's Plating,29.64,Michigan,Ingham,NPL Site,42.739439000000004,-84.587781
"Allied Paper, Inc./Portage Creek/Kalamazoo River",36.41,Michigan,Allegan,NPL Site,42.303333,-85.576083
Hi-Mill Manufacturing Co.,49.54,Michigan,Oakland,NPL Site,42.649831,-83.593089
Bendix Corp./Allied Automotive,37.27,Michigan,Berrien,NPL Site,42.04945,-86.51195
"State Disposal Landfill, Inc.",42.24,Michigan,Kent,NPL Site,43.013397,-85.590506
Muskegon Chemical Co.,34.19,Michigan,Muskegon,NPL Site,43.3891,-86.334
Peerless Plating Co.,43.94,Michigan,Muskegon,NPL Site,43.2056,-86.2237
Albion-Sheridan Township Landfill,33.79,Michigan,Calhoun,NPL Site,42.24955,-84.7195
Aircraft Components (D & L Sales),0.0,Michigan,Berrien,NPL Site,42.126944,-86.454444
Kysor Industrial Corp.,33.94,Michigan,Wexford,NPL Site,44.2568,-85.4226
Gratiot County Golf Course,29.54,Michigan,Gratiot,NPL Site,43.415842,-84.62324699999999
Ten-Mile Drain,48.88,Michigan,Macomb,NPL Site,42.486944,-82.899167
DSC McLouth Steel Gibraltar Plant,50.0,Michigan,Wayne,NPL Site,42.103075,-83.200292
McLouth Steel Corp,50.0,Michigan,Wayne,NPL Site,42.160596999999996,-83.170906
Burlington Northern (Brainerd/Baxter Plant),46.77,Minnesota,Crow Wing,NPL Site,46.3532,-94.2282
FMC Corp. (Fridley Plant),65.5,Minnesota,Anoka,NPL Site,45.0565,-93.2762
Koppers Coke,55.05,Minnesota,Ramsey,NPL Site,44.972219,-93.152781
Lehillier/Mankato Site,42.49,Minnesota,Blue Earth,NPL Site,44.153331,-94.038331
New Brighton/Arden Hills/TCAAP (USARMY),59.16,Minnesota,Ramsey,NPL Site,45.079169,-93.1975
Oakdale Dump,55.71,Minnesota,Washington,NPL Site,45.0,-92.966669
Reilly Tar & Chemical Corp. (St. Louis Park Plant),0.0,Minnesota,Hennepin,NPL Site,44.941669,-93.372219
South Andover Site,35.41,Minnesota,Anoka,NPL Site,45.2179,-93.318
Arrowhead Refinery Co.,43.75,Minnesota,St Louis,NPL Site,46.8377,-92.2398
General Mills/Henkel Corp.,36.28,Minnesota,Hennepin,NPL Site,44.99,-93.22278100000001
Joslyn Manufacturing & Supply Co.,44.3,Minnesota,Hennepin,NPL Site,45.045,-93.333339
MacGillis & Gibbs/Bell Lumber & Pole Co.,48.33,Minnesota,Ramsey,NPL Site,45.055,-93.194731
Perham Arsenic Site,37.98,Minnesota,Otter Tail,NPL Site,46.587781,-95.57166099999999
St. Regis Paper Co.,52.88,Minnesota,Cass,NPL Site,47.375561,-94.60555
St. Louis River Site,32.08,Minnesota,St Louis,NPL Site,46.677781,-92.21221899999999
Kurt Manufacturing Co.,31.41,Minnesota,Anoka,NPL Site,45.064411,-93.268361
Long Prairie Ground Water Contamination,31.94,Minnesota,Todd,NPL Site,45.978531,-94.856639
Naval Industrial Reserve Ordnance Plant,30.83,Minnesota,Anoka,NPL Site,45.058831,-93.273669
Freeway Sanitary Landfill,45.91,Minnesota,Dakota,NPL Site,44.795,-93.29333100000001
Waite Park Wells,31.94,Minnesota,Stearns,NPL Site,45.561669,-94.215
Ritari Post & Pole,29.81,Minnesota,Wadena,NPL Site,46.6608,-95.0298
Baytown Township Ground Water Plume,35.62,Minnesota,Washington,NPL Site,45.0,-92.833333
Fridley Commons Park Well Field,50.0,Minnesota,Anoka,NPL Site,45.080556,-93.255556
South Minneapolis Residential Soil Contamination,44.58,Minnesota,Hennepin,NPL Site,44.9528,-93.2427
Spring Park Municipal Well Field,50.0,Minnesota,Hennepin,NPL Site,44.935944,-93.633306
Minker/Stout/Romaine Creek,36.78,Missouri,Jefferson,NPL Site,38.44,-90.48
Ellisville Site,0.0,Missouri,St Louis,NPL Site,38.603331,-90.61833100000001
Fulbright Landfill,40.6,Missouri,Greene,NPL Site,37.273056,-93.3125
Syntex Facility,43.78,Missouri,Lawrence,NPL Site,36.965,-93.798331
Lee Chemical,46.81,Missouri,Clay,NPL Site,39.201111,-94.3925
"Solid State Circuits, Inc.",37.93,Missouri,Greene,NPL Site,37.118061,-93.480281
Bee Cee Manufacturing Co.,28.59,Missouri,Dunklin,NPL Site,36.603331,-89.98
Quality Plating,40.7,Missouri,Scott,NPL Site,36.96305,-89.55721899999999
Weldon Spring Former Army Ordnance Works,30.26,Missouri,St Charles,NPL Site,38.696389,-90.729161
Lake City Army Ammunition Plant (Northwest Lagoon),33.62,Missouri,Jackson,NPL Site,39.103,-94.2783
Valley Park TCE,35.57,Missouri,St Louis,NPL Site,38.552781,-90.466669
Oronogo-Duenweg Mining Belt,46.2,Missouri,Jasper,NPL Site,37.101110999999996,-94.42056099999999
Missouri Electric Works,31.2,Missouri,Cape Girardeau,NPL Site,37.28625,-89.55505600000001
Weldon Spring Quarry/Plant/Pits (USDOE/Army),58.6,Missouri,St Charles,NPL Site,38.696944,-90.724999
St. Louis Airport/Hazelwood Interim Storage/Futura Coatings Co.,38.31,Missouri,St Louis,NPL Site,38.759719,-90.360419
Westlake Landfill,29.85,Missouri,St Louis,NPL Site,38.77,-90.445269
Big River Mine Tailings/St. Joe Minerals Corp.,84.91,Missouri,St Francois,NPL Site,37.886389,-90.55
Newton County Wells,50.0,Missouri,Newton,NPL Site,37.044722,-94.473056
Pools Prairie,50.0,Missouri,Newton,NPL Site,36.803056,-94.39027800000001
Armour Road,50.0,Missouri,Clay,NPL Site,39.145,-94.556111
Riverfront,50.0,Missouri,Franklin,NPL Site,38.613889,-91.214722
"Trans Circuits, Inc.",50.0,Florida,Palm Beach,NPL Site,26.795278000000003,-80.07388900000001
Kane & Lombard Street Drums,30.15,Maryland,Baltimore,NPL Site,39.2956,-76.5419
Landia Chemical Company,50.0,Florida,Polk,NPL Site,28.039444,-81.979167
Alaric Area Ground Water Plume,41.91,Florida,Hillsborough,NPL Site,27.964083000000002,-82.375139
Aberdeen Proving Ground (Michaelsville Landfill),31.09,Maryland,Baltimore,NPL Site,39.4606,-76.1414
Aberdeen Proving Ground (Edgewood Area),53.57,Maryland,Baltimore,NPL Site,39.395404,-76.30773
Woodlawn County Landfill,48.13,Maryland,Cecil,NPL Site,39.641669,-76.09
Bush Valley Landfill,40.3,Maryland,Harford,NPL Site,39.467219,-76.26195
"Spectron, Inc.",51.42,Maryland,Cecil,NPL Site,39.691249,-75.877778
"Ordnance Products, Inc.",32.15,Maryland,Cecil,NPL Site,39.630833,-75.923889
H.O.D. Landfill,34.68,Illinois,Lake,NPL Site,42.4753,-88.0819
Indian Head Naval Surface Warfare Center,50.0,Maryland,Charles,NPL Site,38.591389,-77.174306
Central Chemical (Hagerstown),50.0,Maryland,Washington,NPL Site,39.656667,-77.723611
Fort George G. Meade,51.44,Maryland,Anne Arundel,NPL Site,39.083333,-76.715278
Curtis Bay Coast Guard Yard,50.0,Maryland,Anne Arundel,NPL Site,39.2,-76.572694
Fort Detrick Area B Ground Water,49.52,Maryland,Frederick,NPL Site,39.434442,-77.44676899999999
Dwyer Property Ground Water Plume,50.0,Maryland,Cecil,NPL Site,39.612007,-75.844474
Sauer Dump,50.0,Maryland,Baltimore,NPL Site,39.270267,-76.45271
McKin Co.,60.97,Maine,Cumberland,NPL Site,43.8841,-70.2942
Saco Municipal Landfill,29.49,Maine,York,NPL Site,43.5302,-70.4815
Winthrop Landfill,35.62,Maine,Kennebec,NPL Site,44.275831,-69.988331
Brunswick Naval Air Station,43.38,Maine,Cumberland,NPL Site,43.90634,-69.933986
Loring Air Force Base,34.49,Maine,Aroostook,NPL Site,46.944444,-67.883888
Portsmouth Naval Shipyard,50.0,Maine,York,NPL Site,43.084167,-70.74166600000001
West Site/Hows Corners,50.0,Maine,Penobscot,NPL Site,44.740278,-69.182222
Eastern Surplus,50.0,Maine,Washington,NPL Site,45.038889000000005,-67.358333
Eastland Woolen Mill,70.71,Maine,Penobscot,NPL Site,44.921667,-69.261111
Callahan Mine,50.0,Maine,Hancock,NPL Site,44.351639,-68.810139
Leeds Metal,32.25,Maine,Androscoggin,NPL Site,44.237083,-70.08025
Keddy Mill,50.0,Maine,Cumberland,NPL Site,43.734953000000004,-70.424514
"Auto Ion Chemicals, Inc.",32.07,Michigan,Kalamazoo,NPL Site,42.293889,-85.567219
Butterworth #2 Landfill,50.31,Michigan,Kent,NPL Site,42.952219,-85.700281
"Cannelton Industries, Inc.",30.16,Michigan,Chippewa,NPL Site,46.488889,-84.393061
Chem Central,38.2,Michigan,Kent,NPL Site,42.91,-85.674161
Clare Water Supply,38.43,Michigan,Clare,NPL Site,43.815,-84.7625
Electrovoice,35.36,Michigan,Berrien,NPL Site,41.8206,-86.3545
Forest Waste Products,38.64,Michigan,Genesee,NPL Site,43.198331,-83.545831
G&H Landfill,49.09,Michigan,Macomb,NPL Site,42.664719,-83.07776899999999
Grand Traverse Overall Supply Co.,35.53,Michigan,Leelanau,NPL Site,44.7944,-85.6382
Gratiot County Landfill,0.0,Michigan,Gratiot,NPL Site,43.395,-84.595281
Hedblum Industries,37.29,Michigan,Iosco,NPL Site,44.4113,-83.3469
Ionia City Landfill,31.31,Michigan,Ionia,NPL Site,42.976669,-85.046111
K&L Avenue Landfill,38.1,Michigan,Kalamazoo,NPL Site,42.283331,-85.718889
Kentwood Landfill,35.39,Michigan,Kent,NPL Site,42.8738,-85.5906
"Liquid Disposal, Inc.",63.28,Michigan,Macomb,NPL Site,42.652781,-83.073611
McGraw Edison Corp.,33.42,Michigan,Calhoun,NPL Site,42.252219000000004,-84.73306099999999
Northernaire Plating,57.93,Michigan,Wexford,NPL Site,44.265,-85.41
"Organic Chemicals, Inc.",32.93,Michigan,Kent,NPL Site,42.9178,-85.7475
Ott/Story/Cordova Chemical Co.,53.41,Michigan,Muskegon,NPL Site,43.303331,-86.25666899999999
Packaging Corp. of America,51.91,Michigan,Manistee,NPL Site,44.226389000000005,-86.273331
Petoskey Municipal Well Field,42.68,Michigan,Emmet,NPL Site,45.376000000000005,-84.964
Rasmussen's Dump,31.8,Michigan,Livingston,NPL Site,42.4544,-83.7693
Rose Township Dump,50.92,Michigan,Oakland,NPL Site,42.720831,-83.631939
SCA Independent Landfill,34.75,Michigan,Muskegon,NPL Site,43.201111,-86.1425
Shiawassee River,31.01,Michigan,Livingston,NPL Site,42.622780999999996,-83.963611
Southwest Ottawa County Landfill,39.66,Michigan,Ottawa,NPL Site,42.820419,-86.18521899999999
Sparta Landfill,32.0,Michigan,Kent,NPL Site,43.1525,-85.68195
Spartan Chemical Co.,41.05,Michigan,Kent,NPL Site,42.915831,-85.72778100000001
Springfield Township Dump,51.97,Michigan,Oakland,NPL Site,42.7044,-83.5419
Tar Lake,48.55,Michigan,Antrim,NPL Site,44.8866,-85.073
U.S. Aviex,33.66,Michigan,Cass,NPL Site,41.8309,-86.1968
Velsicol Chemical Corp.(Michigan),52.29,Michigan,Gratiot,NPL Site,43.410561,-84.618611
Verona Well Field,46.86,Michigan,Calhoun,NPL Site,42.341669,-85.143331
Wash King Laundry,40.03,Michigan,Lake,NPL Site,43.8532,-85.853
Metamora Landfill,35.51,Michigan,Lapeer,NPL Site,42.94695,-83.274439
Sturgis Municipal Wells,42.24,Michigan,St Joseph,NPL Site,41.7988,-85.4256
"Thermo-Chem, Inc.",53.36,Michigan,Muskegon,NPL Site,43.210831,-86.136669
Torch Lake,46.72,Michigan,Houghton,NPL Site,47.169719,-88.39778100000001
North Bronson Industrial Area,33.93,Michigan,Branch,NPL Site,41.880281,-85.193339
Michigan Disposal Service (Cork Street Landfill),37.93,Michigan,Kalamazoo,NPL Site,42.2545,-85.5433
"Motor Wheel, Inc.",48.91,Michigan,Ingham,NPL Site,42.760831,-84.535
South Macomb Disposal Authority (Landfills #9 and #9A),33.67,Michigan,Macomb,NPL Site,42.682081,-82.907389
"Roto-Finish Co., Inc.",40.7,Michigan,Kalamazoo,NPL Site,42.2292,-85.5443
"H. Brown Co., Inc.",39.88,Michigan,Kent,NPL Site,43.003331,-85.67833900000001
Rockwell International Corp. (Allegan Plant),52.15,Michigan,Allegan,NPL Site,42.536669,-85.85
Lindsay Manufacturing Co.,47.91,Nebraska,Platte,NPL Site,41.701669,-97.69
Fort Wainwright,42.4,Alaska,Fairbanks North Star,NPL Site,64.82300000000001,-147.6106
Parkview Well,50.0,Nebraska,Hall,NPL Site,40.895833,-98.365
Garvey Elevator,50.0,Nebraska,Adams,NPL Site,40.563611,-98.41555600000001
West Highway 6 & Highway 281,50.0,Nebraska,Adams,NPL Site,40.5712,-98.4095
PCE Southeast Contamination ,43.33,Nebraska,York,NPL Site,40.859594,-97.580614
PCE/TCE Northeast Contamination,50.0,Nebraska,York,NPL Site,40.888636,-97.60036099999999
Iowa-Nebraska Light & Power Co,40.8,Nebraska,Madison,NPL Site,42.0323,-97.417028
Fort Riley,33.79,Kansas,Geary,NPL Site,39.166669,-96.75
Old HWY 275 and N 288th Street,50.0,Nebraska,Douglas,NPL Site,41.329091999999996,-96.367333
Auburn Road Landfill,36.3,New Hampshire,Rockingham,NPL Site,42.9302,-71.3529
Dover Municipal Landfill,36.98,New Hampshire,Strafford,NPL Site,43.2125,-70.953
Keefe Environmental Services,65.19,New Hampshire,Rockingham,NPL Site,43.024169,-71.033331
Ottati & Goss/Kingston Steel Drum,53.41,New Hampshire,Rockingham,NPL Site,42.897219,-71.080561
Somersworth Sanitary Landfill,65.56,New Hampshire,Strafford,NPL Site,43.2489,-70.8845
"Tri-County Landfill Co./Waste Management of Illinois, Inc.",42.76,Illinois,Kane,NPL Site,41.9832,-88.2712
Sylvester,0.0,New Hampshire,Hillsborough,NPL Site,42.7197,-71.523111
Tinkham Garage,43.24,New Hampshire,Rockingham,NPL Site,42.860831,-71.351111
Kearsarge Metallurgical Corp.,38.45,New Hampshire,Carroll,NPL Site,43.9721,-71.1293
Savage Municipal Water Supply,37.52,New Hampshire,Hillsborough,NPL Site,42.8418,-71.6884
South Municipal Water Supply Well,35.64,New Hampshire,Hillsborough,NPL Site,42.8489,-71.9468
Coakley Landfill,29.16,New Hampshire,Rockingham,NPL Site,43.001111,-70.817219
Tibbetts Road,41.09,New Hampshire,Strafford,NPL Site,43.18,-71.0347
Mottolo Pig Farm,40.7,New Hampshire,Rockingham,NPL Site,42.989581,-71.17318900000001
Fletcher's Paint Works & Storage,35.39,New Hampshire,Hillsborough,NPL Site,42.8358,-71.6554
Pease Air Force Base,39.42,New Hampshire,Rockingham,NPL Site,43.080169,-70.82125
New Hampshire Plating Co.,50.0,New Hampshire,Hillsborough,NPL Site,42.855833000000004,-71.488888
Beede Waste Oil,70.71,New Hampshire,Rockingham,NPL Site,42.855075,-71.105889
Troy Mills Landfill,50.0,New Hampshire,Cheshire,NPL Site,42.802583,-72.186944
Chlor-Alkali Facility (Former),30.54,New Hampshire,Coos,NPL Site,44.479194,-71.167194
Collins & Aikman Plant (Former),50.0,New Hampshire,Strafford,NPL Site,43.372,-71.05875
A. O. Polymer,28.91,New Jersey,Sussex,NPL Site,41.04805,-74.63
American Cyanamid Co.,50.28,New Jersey,Somerset,NPL Site,40.555561,-74.55945
Bog Creek Farm,43.23,New Jersey,Monmouth,NPL Site,40.150831,-74.161111
Brick Township Landfill,58.13,New Jersey,Ocean,NPL Site,40.1098,-74.1311
Bridgeport Rental & Oil Services,60.73,New Jersey,Gloucester,NPL Site,39.801669,-75.32166099999999
Burnt Fly Bog,59.16,New Jersey,Middlesex,NPL Site,40.375,-74.279169
Caldwell Trucking Co.,58.3,New Jersey,Essex,NPL Site,40.876389,-74.271389
Chemical Control,47.13,New Jersey,Union,NPL Site,40.6432,-74.1935
"Chemsol, Inc.",42.69,New Jersey,Middlesex,NPL Site,40.5625,-74.443339
Combe Fill South Landfill,45.22,New Jersey,Morris,NPL Site,40.771669,-74.738331
CPS/Madison Industries,69.73,New Jersey,Middlesex,NPL Site,40.434439000000005,-74.32776899999999
D'Imperio Property,55.79,New Jersey,Atlantic,NPL Site,39.454439,-74.658889
Dover Municipal Well 4,28.9,New Jersey,Morris,NPL Site,40.8858,-74.5423
Ellis Property,34.62,New Jersey,Burlington,NPL Site,39.905,-74.864719
Evor Phillips Leasing,36.64,New Jersey,Middlesex,NPL Site,40.4375,-74.325
Fair Lawn Well Field,42.49,New Jersey,Bergen,NPL Site,40.9375,-74.131939
GEMS Landfill,68.53,New Jersey,Camden,NPL Site,39.77945,-75.018889
Goose Farm,47.71,New Jersey,Ocean,NPL Site,40.09555,-74.4975
"Hercules, Inc. (Gibbstown Plant)",40.36,New Jersey,Gloucester,NPL Site,39.838889,-75.277781
"Imperial Oil Co., Inc./Champion Chemicals",33.87,New Jersey,Monmouth,NPL Site,40.383889,-74.24583100000001
JIS Landfill,45.14,New Jersey,Middlesex,NPL Site,40.365831,-74.465281
Kin-Buc Landfill,50.64,New Jersey,Middlesex,NPL Site,40.4891,-74.3785
King of Prussia,47.19,New Jersey,Camden,NPL Site,39.62695,-74.889439
Helen Kramer Landfill,72.66,New Jersey,Gloucester,NPL Site,39.7801,-75.2003
Lang Property,48.89,New Jersey,Burlington,NPL Site,39.929161,-74.49445
Lipari Landfill,75.6,New Jersey,Gloucester,NPL Site,39.720281,-75.14193900000001
Lone Pine Landfill,66.33,New Jersey,Monmouth,NPL Site,40.202781,-74.333339
Maywood Chemical Co.,51.19,New Jersey,Bergen,NPL Site,40.8964,-74.0693
Metaltec/Aerosystems,48.95,New Jersey,Sussex,NPL Site,41.109719,-74.599719
Montgomery Township Housing Development,37.93,New Jersey,Somerset,NPL Site,40.408331,-74.64416899999999
Myers Property,33.83,New Jersey,Hunterdon,NPL Site,40.595,-74.9404
NL Industries,52.96,New Jersey,Salem,NPL Site,39.758061,-75.424719
PJP Landfill,28.73,New Jersey,Hudson,NPL Site,40.734719,-74.085561
Price Landfill,0.0,New Jersey,Atlantic,NPL Site,39.415281,-74.52695
Reich Farms,53.48,New Jersey,Ocean,NPL Site,40.0106,-74.2149
Rockaway Borough Well Field,42.34,New Jersey,Morris,NPL Site,40.905831,-74.515561
Rockaway Township Wells,28.9,New Jersey,Morris,NPL Site,40.913331,-74.499169
Rocky Hill Municipal Well,37.93,New Jersey,Somerset,NPL Site,40.401669,-74.6475
Roebling Steel Co.,41.02,New Jersey,Burlington,NPL Site,40.120831,-74.770839
Scientific Chemical Processing,55.97,New Jersey,Bergen,NPL Site,40.82454,-74.074329
Sharkey Landfill,48.85,New Jersey,Morris,NPL Site,40.8501,-74.3454
Swope Oil & Chemical Co.,35.68,New Jersey,Camden,NPL Site,39.9886,-75.0347
Syncon Resins,43.43,New Jersey,Hudson,NPL Site,40.737781,-74.114719
Ciba-Geigy Corp.,50.33,New Jersey,Ocean,NPL Site,39.9867,-74.2363
Universal Oil Products (Chemical Division),54.63,New Jersey,Bergen,NPL Site,40.83,-74.088889
U.S. Radium Corp.,37.79,New Jersey,Essex,NPL Site,40.781389000000004,-74.228611
Williams Property,40.45,New Jersey,Cape May,NPL Site,39.1173,-74.8004
Woodland Route 72 Dump,31.17,New Jersey,Burlington,NPL Site,39.821669,-74.447781
"Chemical Leaman Tank Lines, Inc.",47.53,New Jersey,Gloucester,NPL Site,39.798331,-75.33278100000001
De Rewal Chemical Co.,35.72,New Jersey,Hunterdon,NPL Site,40.5162,-75.0614
Diamond Alkali Co.,35.4,New Jersey,Essex,NPL Site,40.739719,-74.136111
Ewan Property,50.19,New Jersey,Burlington,NPL Site,39.802781,-74.71943900000001
Elmendorf Air Force Base,45.91,Alaska,Anchorage,NPL Site,61.254169,-149.7917
"Southern Solvents, Inc.",50.0,Florida,Hillsborough,NPL Site,28.040556,-82.510278
Parsons Casket Hardware Co.,55.58,Illinois,Boone,NPL Site,42.2692,-88.836
57th and North Broadway Streets Site,50.0,Kansas,Sedgwick,NPL Site,37.775,-97.31666700000001
Eielson Air Force Base,48.14,Alaska,Fairbanks North Star,NPL Site,64.67145,-147.0492
Adak Naval Air Station,51.37,Alaska,Aleutians West,NPL Site,51.8775,-176.6525
Fort Richardson (USARMY),50.0,Alaska,Anchorage,NPL Site,61.25833299999999,-149.7
Triana/Tennessee River,61.42,Alabama,Limestone,NPL Site,34.508888,-86.638194
Ciba-Geigy Corp. (McIntosh Plant),53.42,Alabama,Washington,NPL Site,31.279,-87.9955
Olin Corp. (McIntosh Plant),39.71,Alabama,Washington,NPL Site,31.263889000000002,-87.99445
Stauffer Chemical Co. (LeMoyne Plant),32.34,Alabama,Mobile,NPL Site,30.969439,-88.0175
Stauffer Chemical Co. (Cold Creek Plant),46.77,Alabama,Mobile,NPL Site,30.975,-88.021389
Alabama Army Ammunition Plant,36.83,Alabama,Talladega,NPL Site,33.3381,-86.3268
Interstate Lead Co. (ILCO),42.86,Alabama,Jefferson,NPL Site,33.688889,-86.633333
T.H. Agriculture & Nutrition Co. (Montgomery Plant),44.46,Alabama,Montgomery,NPL Site,32.3761,-86.3791
Redstone Arsenal (USARMY/NASA),50.0,Alabama,Madison,NPL Site,34.646944,-86.673055
American Brass,55.61,Alabama,Henry,NPL Site,31.325,-85.404167
"Alabama Plating Company, Inc.",30.2,Alabama,Shelby,NPL Site,33.399722,-86.405
Anniston Army Depot (Southeast Industrial Area),51.91,Alabama,Calhoun,NPL Site,33.659439,-85.96943900000001
Mid-South Wood Products,45.87,Arkansas,Polk,NPL Site,34.5697,-94.2566
Midland Products,30.77,Arkansas,Yell,NPL Site,35.025,-93.203889
"Vertac, Inc.",65.46,Arkansas,Pulaski,NPL Site,34.878,-92.1312
"Arkwood, Inc.",28.95,Arkansas,Boone,NPL Site,36.445,-93.1964
"Popile, Inc.",50.03,Arkansas,Union,NPL Site,33.1825,-92.673333
Mountain Pine Pressure Treating,41.93,Arkansas,Yell,NPL Site,34.984167,-93.302222
Ouachita Nevada Wood Treater,50.0,Arkansas,Ouachita,NPL Site,33.759453,-93.104258
Cedar Chemical Corporation,0.0,Arkansas,Phillips,NPL Site,34.5206,-90.6517
MacMillan Ring Free Oil,50.0,Arkansas,Union,NPL Site,33.30836,-92.65688
Indian Bend Wash Area,42.24,Arizona,Maricopa,NPL Site,33.466669,-111.9083
Phoenix-Goodyear Airport Area,45.91,Arizona,Maricopa,NPL Site,33.429719,-112.3653
Tucson International Airport Area,57.8,Arizona,Pima,NPL Site,32.105561,-110.9333
Hassayampa Landfill,42.79,Arizona,Maricopa,NPL Site,33.368331,-112.7483
Yuma Marine Corps Air Station,32.24,Arizona,Yuma,NPL Site,32.654581,-114.5888
Williams Air Force Base,37.93,Arizona,Maricopa,NPL Site,33.30695,-111.6519
"Motorola, Inc. (52nd Street Plant)",40.83,Arizona,Maricopa,NPL Site,33.461669,-111.9708
Apache Powder Co.,39.09,Arizona,Cochise,NPL Site,31.88,-110.24
Iron King Mine - Humboldt Smelter,52.69,Arizona,Yavapai,NPL Site,34.5,-112.25
Aerojet General Corp.,54.63,California,Sacramento,NPL Site,38.608331,-121.2
Coast Wood Preserving,44.73,California,Mendocino,NPL Site,39.1125,-123.193
Iron Mountain Mine,56.16,California,Shasta,NPL Site,40.671669,-122.5278
McColl,41.77,California,Orange,NPL Site,33.8953,-117.9712
"Purity Oil Sales, Inc.",43.27,California,Fresno,NPL Site,36.6874,-119.7467
Selma Treating Co.,48.83,California,Fresno,NPL Site,36.556669,-119.6017
Stringfellow,0.0,California,Riverside,NPL Site,34.023056,-117.45833
Westinghouse Electric Corp. (Sunnyvale Plant),39.93,California,Santa Clara,NPL Site,37.3787,-122.0225
"Valley Wood Preserving, Inc.",32.01,California,Stanislaus,NPL Site,37.4727,-120.8239
"Koppers Co., Inc. (Oroville Plant)",33.73,California,Butte,NPL Site,39.470831,-121.5643
McClellan Air Force Base (Ground Water Contamination),57.93,California,Sacramento,NPL Site,38.66,-121.3994
Atlas Asbestos Mine,45.55,California,Fresno,NPL Site,36.321669,-120.5867
San Gabriel Valley (Area 1),42.24,California,Los Angeles,NPL Site,34.125,-118.0
San Gabriel Valley (Area 2),42.24,California,Los Angeles,NPL Site,34.073611,-117.9361
San Gabriel Valley (Area 3),28.9,California,Los Angeles,NPL Site,34.1,-118.125
San Gabriel Valley (Area 4),28.9,California,Los Angeles,NPL Site,34.016669,-117.9583
South Bay Asbestos Area,44.68,California,Santa Clara,NPL Site,37.429860999999995,-121.9811
"Operating Industries, Inc., Landfill",57.22,California,Los Angeles,NPL Site,34.033333,-118.105556
San Fernando Valley (Area 1),42.24,California,Los Angeles,NPL Site,34.19,-118.3514
San Fernando Valley (Area 2),42.24,California,Los Angeles,NPL Site,34.163139,-118.286
San Fernando Valley (Area 4),35.57,California,Los Angeles,NPL Site,34.112080999999996,-118.2539
Montrose Chemical Corp.,32.1,California,Los Angeles,NPL Site,33.848331,-118.2983
Sharpe Army Depot,42.24,California,San Joaquin,NPL Site,37.829169,-121.2672
Norton Air Force Base,39.65,California,San Bernardino,NPL Site,34.098061,-117.2372
Castle Air Force Base (6 Areas),37.93,California,Merced,NPL Site,37.367360999999995,-120.5636
Mather Air Force Base,28.9,California,Sacramento,NPL Site,38.55695,-121.2972
Lawrence Livermore Laboratory (USDOE),42.24,California,Alameda,NPL Site,37.688061,-121.7047
Beckman Instruments (Porterville Plant),34.21,California,Tulare,NPL Site,36.049,-119.0201
"Advanced Micro Devices, Inc.",37.93,California,Santa Clara,NPL Site,37.3825,-122.0086
Applied Materials,31.94,California,Santa Clara,NPL Site,37.3777,-121.9777
Intel Magnetics,31.94,California,Santa Clara,NPL Site,37.3756,-121.9801
Monolithic Memories,35.57,California,Santa Clara,NPL Site,37.3816,-121.9968
National Semiconductor Corp.,35.57,California,Santa Clara,NPL Site,37.375281,-121.9989
"United Metals, Inc.",33.73,Florida,Jackson,NPL Site,30.685833000000002,-85.168056
"City Industries, Inc.",32.0,Florida,Orange,NPL Site,28.601389,-81.3
Flash Cleaners,50.0,Florida,Broward,NPL Site,26.2824,-80.0969
Arkla Terra Property,50.0,Florida,Hillsborough,NPL Site,28.057778000000003,-82.3175
Raleigh Street Dump,50.0,Florida,Hillsborough,NPL Site,27.914416999999997,-82.410861
General Dynamics Longwood,50.0,Florida,Seminole,NPL Site,28.716620000000002,-81.32122
JJ Seifert Machine,50.0,Florida,Hillsborough,NPL Site,27.678611,-82.477778
Kerr-McGee Chemical Corp - Jacksonville,70.71,Florida,Duval,NPL Site,30.3442,-81.6265
Sanford Dry Cleaners,50.0,Florida,Seminole,NPL Site,28.811217,-81.265606
Continental Cleaners,50.0,Florida,Miami-Dade,NPL Site,25.831842,-80.210178
Fairfax St. Wood Treaters,50.0,Florida,Duval,NPL Site,30.354091999999998,-81.68639399999999
Post and Lumber Preserving Co. Inc.,36.33,Florida,Gadsden,NPL Site,30.592471999999997,-84.510081
Hercules 009 Landfill,52.58,Georgia,Glynn,NPL Site,31.2049,-81.4858
Robins Air Force Base (Landfill #4/Sludge Lagoon),51.66,Georgia,Houston,NPL Site,32.619983000000005,-83.582075
"Woolfolk Chemical Works, Inc.",42.24,Georgia,Peach,NPL Site,32.549580999999996,-83.88416099999999
Mathis Brothers Landfill (South Marble Top Road),30.78,Georgia,Walker,NPL Site,34.797781,-85.377781
Diamond Shamrock Corp. Landfill,35.6,Georgia,Polk,NPL Site,34.0207,-85.2717
T.H. Agriculture & Nutrition Co. (Albany Plant),40.93,Georgia,Dougherty,NPL Site,31.617361,-84.181661
Marzone Inc./Chevron Chemical Co.,30.26,Georgia,Tift,NPL Site,31.4289,-83.5017
Firestone Tire & Rubber Co. (Albany Plant),30.08,Georgia,Dougherty,NPL Site,31.565831,-84.053889
Marine Corps Logistics Base,44.65,Georgia,Dougherty,NPL Site,31.557219,-84.055
LCP Chemicals Georgia,0.0,Georgia,Glynn,NPL Site,31.189444,-81.508333
Brunswick Wood Preserving,54.49,Georgia,Glynn,NPL Site,31.242221999999998,-81.528056
Camilla Wood Preserving Company,50.0,Georgia,Mitchell,NPL Site,31.2225,-84.20333000000001
Peach Orchard Road PCE Ground Water Plume,50.0,Georgia,Richmond,NPL Site,33.421178000000005,-82.015139
Alternate Energy Resources,50.0,Georgia,Richmond,NPL Site,33.454194,-82.03694399999999
Armstrong World Industries,50.0,Georgia,Bibb,NPL Site,32.773497,-83.6516
Macon Naval Ordnance Plant,48.97,Georgia,Bibb,NPL Site,32.777658,-83.639675
Ordot Landfill,0.0,Guam,Guam,NPL Site,13.439169,144.7474
Andersen Air Force Base,50.0,Guam,Guam,NPL Site,13.572916000000001,144.89736100000002
Pearl Harbor Naval Complex,70.82,Hawaii,Honolulu,NPL Site,21.388889000000002,-157.98333300000002
Del Monte Corp. (Oahu Plantation),50.0,Hawaii,Honolulu,NPL Site,21.458333,-158.066667
Naval Computer and Telecommunications Area Master Station Eastern Pacific,50.0,Hawaii,Honolulu,NPL Site,21.519026999999998,-158.005138
Des Moines TCE,42.28,Iowa,Polk,NPL Site,41.5781,-93.63600000000001
Midwest Manufacturing/North Farm,32.04,Iowa,Jasper,NPL Site,41.746811,-92.893061
Vogel Paint & Wax Co.,31.45,Iowa,Sioux,NPL Site,42.934439000000005,-96.193339
Lawrence Todtz Farm,52.11,Iowa,Clinton,NPL Site,41.787781,-90.29263900000001
Shaw Avenue Dump,30.01,Iowa,Floyd,NPL Site,43.0563,-92.6631
Fairfield Coal Gasification Plant,38.05,Iowa,Jefferson,NPL Site,41.0062,-91.9724
Peoples Natural Gas Co.,46.24,Iowa,Dubuque,NPL Site,42.505281,-90.658889
Iowa Army Ammunition Plant,29.73,Iowa,Des Moines,NPL Site,40.808331,-91.246669
Mason City Coal Gasification Plant,69.33,Iowa,Cerro Gordo,NPL Site,43.1476,-93.1992
Railroad Avenue Groundwater Contamination,50.0,Iowa,Polk,NPL Site,41.578333,-93.70222199999999
PCE Former Dry Cleaner,50.0,Iowa,Cass,NPL Site,41.403717,-94.99576400000001
Bunker Hill Mining & Metallurgical Complex,54.76,Idaho,Shoshone,NPL Site,47.543061,-116.1617
Eastern Michaud Flats Contamination,57.8,Idaho,Bannock,NPL Site,42.901111,-112.5225
Idaho National Engineering Laboratory (USDOE),51.91,Idaho,Bingham,NPL Site,43.529389,-112.9435
Mountain Home Air Force Base,57.8,Idaho,Elmore,NPL Site,43.04805,-115.8647
Monsanto Chemical Co. (Soda Springs Plant),54.77,Idaho,Caribou,NPL Site,42.687031,-111.5878
Kerr-McGee Chemical Corp. (Soda Springs Plant),51.91,Idaho,Caribou,NPL Site,42.687219,-111.5736
"Acme Solvents Reclaiming, Inc. (Morristown Plant)",31.98,Illinois,Winnebago,NPL Site,42.1577,-89.0455
Byron Salvage Yard,33.93,Illinois,Ogle,NPL Site,42.081669,-89.295831
Cross Brothers Pail Recycling (Pembroke),42.04,Illinois,Kankakee,NPL Site,41.0909,-87.5893
Galesburg/Koppers Co.,34.78,Illinois,Knox,NPL Site,40.895831,-90.395839
Johns-Manville Corp.,38.2,Illinois,Lake,NPL Site,42.386669,-87.811669
LaSalle Electric Utilities,42.06,Illinois,La Salle,NPL Site,41.354169,-89.0975
Outboard Marine Corp.,0.0,Illinois,Lake,NPL Site,42.365281,-87.821111
Velsicol Chemical Corp. (Marshall Plant),48.78,Illinois,Clark,NPL Site,39.410831,-87.699169
Wauconda Sand & Gravel,53.42,Illinois,Lake,NPL Site,42.281389000000004,-88.1375
Kerr-McGee (Kress Creek/West Branch of DuPage River),39.05,Illinois,Du Page,NPL Site,41.863611,-88.2093
Yeoman Creek Landfill,33.23,Illinois,Lake,NPL Site,42.388889,-87.848611
"Chemical Commodities, Inc.",50.0,Kansas,Johnson,NPL Site,38.878194,-94.80555600000001
Kerr-McGee (Residential Areas),38.15,Illinois,Du Page,NPL Site,41.878333000000005,-88.2075
Sangamo Electric Dump/Crab Orchard National Wildlife Refuge (USDOI),43.7,Illinois,Will,NPL Site,37.693194,-89.01472199999999
NL Industries/Taracorp Lead Smelter,38.11,Illinois,Madison,NPL Site,38.695,-90.158331
Ace Services,50.0,Kansas,Thomas,NPL Site,39.396944,-101.039167
Wright Ground Water Contamination,50.0,Kansas,Ford,NPL Site,37.780556,-99.888889
"Plating, Inc.",50.0,Kansas,Barton,NPL Site,38.346542,-98.84946
Former United Zinc & Associated Smelters,50.0,Kansas,Allen,NPL Site,37.92228,-95.3859
Airco,33.29,Kentucky,Marshall,NPL Site,37.0496,-88.3225
B.F. Goodrich,33.01,Kentucky,Marshall,NPL Site,37.0503,-88.3234
Distler Brickyard,44.77,Kentucky,Hardin,NPL Site,37.989719,-85.951389
Distler Farm,34.62,Kentucky,Jefferson,NPL Site,38.006939,-85.931111
Maxey Flats Nuclear Disposal,31.71,Kentucky,Fleming,NPL Site,38.2608,-83.5692
Smith's Farm,32.69,Kentucky,Bullitt,NPL Site,38.0375,-85.733331
"Green River Disposal, Inc.",29.12,Kentucky,Daviess,NPL Site,37.88945,-86.973611
"Caldwell Lace Leather Co., Inc.",34.21,Kentucky,Logan,NPL Site,36.8725,-86.74638900000001
Brantley Landfill,52.73,Kentucky,McLean,NPL Site,37.44625,-87.156111
Fort Hartford Coal Co. Stone Quarry,43.84,Kentucky,Ohio,NPL Site,37.538889000000005,-86.70276899999999
Tri-City Disposal Co.,33.82,Kentucky,Bullitt,NPL Site,38.047781,-85.768331
National Electric Coil Co./Cooper Industries,50.0,Kentucky,Harlan,NPL Site,36.843889000000004,-83.37138900000001
Paducah Gaseous Diffusion Plant (USDOE),56.95,Kentucky,McCracken,NPL Site,37.120138,-88.811111
Bayou Bonfouca,29.78,Louisiana,St Tammany,NPL Site,30.282219,-89.784161
"Petro-Processors of Louisiana, Inc.",41.44,Louisiana,East Baton Rouge,NPL Site,30.583331,-91.24333100000001
"American Creosote Works, Inc. (Winnfield Plant)",50.7,Louisiana,Winn,NPL Site,31.918611,-92.634722
Agriculture Street Landfill,50.0,Louisiana,Orleans,NPL Site,29.98866,-90.040165
Madisonville Creosote Works,48.01,Louisiana,St Tammany,NPL Site,30.427221999999997,-90.198611
Marion Pressure Treating,50.0,Louisiana,Union,NPL Site,32.908333,-92.252944
Louisiana Army Ammunition Plant,30.26,Louisiana,Webster,NPL Site,32.5422,-93.421
"Combustion, Inc.",33.79,Louisiana,Livingston,NPL Site,30.5129,-90.8939
EVR-Wood Treating/Evangeline Refining Company,48.2,Louisiana,Acadia,NPL Site,30.248056,-92.6175
Delta Shipyard,48.05,Louisiana,Terrebonne,NPL Site,29.565818,-90.705141
Colonial Creosote,50.0,Louisiana,Washington,NPL Site,30.768056,-89.863889
SBA Shipyard ,50.0,Louisiana,Jefferson,NPL Site,30.160603000000002,-92.612236
American Creosote DeRidder,50.0,Louisiana,Beauregard,NPL Site,30.831692999999998,-93.276863
Baird & McGuire,66.35,Massachusetts,Norfolk,NPL Site,42.149719,-71.028611
Charles-George Reclamation Trust Landfill,47.2,Massachusetts,Middlesex,NPL Site,42.66945,-71.443339
Groveland Wells,40.74,Massachusetts,Essex,NPL Site,42.753331,-71.038889
Hocomonco Pond,44.8,Massachusetts,Worcester,NPL Site,42.272781,-71.65083100000001
Industri-Plex,72.42,Massachusetts,Middlesex,NPL Site,42.516669,-71.141669
New Bedford Site,0.0,Massachusetts,Bristol,NPL Site,41.643171,-70.919887
Nyanza Chemical Waste Dump,69.22,Massachusetts,Middlesex,NPL Site,42.258611,-71.473611
PSC Resources,38.66,Massachusetts,Hampden,NPL Site,42.153331,-72.330281
"Re-Solve, Inc.",47.71,Massachusetts,Bristol,NPL Site,41.688061,-71.033889
Rose Disposal Pit,33.03,Massachusetts,Berkshire,NPL Site,42.5055,-73.2748
Silresim Chemical Corp.,42.72,Massachusetts,Middlesex,NPL Site,42.628889,-71.313889
"W.R. Grace & Co., Inc. (Acton Plant)",59.31,Massachusetts,Middlesex,NPL Site,42.45055,-71.42778100000001
Wells G&H,42.71,Massachusetts,Middlesex,NPL Site,42.494719,-71.130839
Haverhill Municipal Landfill,30.29,Massachusetts,Essex,NPL Site,42.753889,-71.046669
Iron Horse Park,42.93,Massachusetts,Middlesex,NPL Site,42.583331,-71.26526899999999
Sullivan's Ledge,32.77,Massachusetts,Bristol,NPL Site,41.654719,-70.957219
Otis Air National Guard Base/Camp Edwards,45.92,Massachusetts,Barnstable,NPL Site,41.651666,-70.521388
Atlas Tack Corp.,42.6,Massachusetts,Bristol,NPL Site,41.635560999999996,-70.89445
Fort Devens,42.24,Massachusetts,Middlesex,NPL Site,42.536111,-71.596111
Blackburn and Union Privileges,50.0,Massachusetts,Norfolk,NPL Site,42.138749,-71.251667
Hanscom Field/Hanscom Air Force Base,50.0,Massachusetts,Middlesex,NPL Site,42.470665999999994,-71.28944399999999
"Natick Laboratory Army Research, Development, and Engineering Center",50.0,Massachusetts,Middlesex,NPL Site,42.288889000000005,-71.36361099999999
Naval Weapons Industrial Reserve Plant,50.0,Massachusetts,Middlesex,NPL Site,42.478889,-71.290277
South Weymouth Naval Air Station,50.0,Massachusetts,Norfolk,NPL Site,42.155277000000005,-70.93347
"Nuclear Metals, Inc.",58.31,Massachusetts,Middlesex,NPL Site,42.441666999999995,-71.421944
Sutton Brook Disposal Area,57.12,Massachusetts,Middlesex,NPL Site,42.598222,-71.183194
Olin Chemical,50.0,Massachusetts,Middlesex,NPL Site,42.528056,-71.153889
Creese & Cook Tannery (Former),60.57,Massachusetts,Essex,NPL Site,42.553111,-70.926722
Walton & Lonsbury Inc.,58.3,Massachusetts,Bristol,NPL Site,41.957583,-71.297139
BJAT LLC,41.91,Massachusetts,Norfolk,NPL Site,42.074417,-71.41080600000001
"Microfab, Inc. (Former)",50.0,Massachusetts,Essex,NPL Site,42.842394,-70.95984200000001
Limestone Road,30.54,Maryland,Allegany,NPL Site,39.626389,-78.722219
"Sand, Gravel and Stone",41.08,Maryland,Cecil,NPL Site,39.615281,-75.896389
DuPage County Landfill/Blackwell Forest,35.57,Illinois,Du Page,NPL Site,41.8326,-88.1787
Southeast Rockford Ground Water Contamination,42.24,Illinois,Winnebago,NPL Site,42.230689,-89.071111
Amoco Chemicals (Joliet Landfill),39.44,Illinois,Will,NPL Site,41.441669,-88.172781
"Interstate Pollution Control, Inc.",46.01,Illinois,Winnebago,NPL Site,42.24100000000001,-89.098
Central Illinois Public Service Co.,28.95,Illinois,Christian,NPL Site,39.5404,-89.2975
Woodstock Municipal Landfill,50.1,Illinois,Henry,NPL Site,42.2923,-88.4402
MIG/Dewane Landfill,49.91,Illinois,Boone,NPL Site,42.255917,-88.806944
"Lenz Oil Service, Inc.",42.33,Illinois,Du Page,NPL Site,41.7068,-87.9422
Adams County Quincy Landfills 2&3,34.21,Illinois,Adams,NPL Site,39.929444000000004,-91.268472
Beloit Corp.,52.08,Illinois,Winnebago,NPL Site,42.468610999999996,-89.06555
Ottawa Radiation Areas,50.0,Illinois,La Salle,NPL Site,41.351667,-88.836111
Jennison-Wright Corporation,40.3,Illinois,Madison,NPL Site,38.708333,-90.1525
DePue/New Jersey Zinc/Mobil Chemical Corp.,70.71,Illinois,Bureau,NPL Site,41.327778,-89.304167
Indian Refinery-Texaco Lawrenceville,56.67,Illinois,Lawrence,NPL Site,38.715556,-87.682222
Matthiessen and Hegeler Zinc Company,50.0,Illinois,La Salle,NPL Site,41.34215,-89.083067
Savanna Army Depot Activity,42.2,Illinois,Jo Daviess,NPL Site,42.21,-90.313331
Joliet Army Ammunition Plant (Load-Assembly-Packing Area),35.23,Illinois,Will,NPL Site,41.3662,-88.0772
Hegeler Zinc,50.0,Illinois,Vermilion,NPL Site,40.076322,-87.650092
Lake Calumet Cluster,30.0,Illinois,Cook,NPL Site,41.679444000000004,-87.568889
ASARCO Taylor Springs,30.0,Illinois,Montgomery,NPL Site,39.118677000000005,-89.50545799999999
Eagle Zinc Co Div T L Diamond,50.0,Illinois,Montgomery,NPL Site,39.161167,-89.476417
Chemetco,30.0,Illinois,Madison,NPL Site,38.799,-90.098
Sandoval Zinc Company,30.0,Illinois,Marion,NPL Site,38.613061,-89.108251
Bautsch-Gray Mine,48.97,Illinois,Jo Daviess,NPL Site,42.357422,-90.398569
Estech General Chemical Company,30.0,Illinois,Cook,NPL Site,41.628303,-87.526905
Old American Zinc Plant,30.0,Illinois,St Clair,NPL Site,38.648,-90.09899999999999
Schroud Property,50.0,Illinois,Cook,NPL Site,41.662606,-87.543503
Envirochem Corp.,46.44,Indiana,Boone,NPL Site,40.03,-86.278339
Fisher-Calo,52.05,Indiana,La Porte,NPL Site,41.5081,-86.6709
Fort Wayne Reduction Dump,42.47,Indiana,Allen,NPL Site,41.075,-85.06666899999999
Lake Sandy Jo (M&M Landfill),38.21,Indiana,Lake,NPL Site,41.570839,-87.382231
Lemon Lane Landfill,29.31,Indiana,Monroe,NPL Site,39.1731,-86.5598
Main Street Well Field,42.49,Indiana,Elkhart,NPL Site,41.696389,-85.979161
Marion (Bragg) Dump,35.25,Indiana,Grant,NPL Site,40.537781,-85.633061
MIDCO I,46.44,Indiana,Lake,NPL Site,41.5895,-87.4284
MIDCO II,30.16,Indiana,Lake,NPL Site,41.622780999999996,-87.408611
Neal's Landfill (Bloomington),42.93,Indiana,Monroe,NPL Site,39.1667,-86.6405
Ninth Avenue Dump,40.32,Indiana,Lake,NPL Site,41.5934,-87.429
Reilly Tar & Chemical Corp. (Indianapolis Plant),34.03,Indiana,Marion,NPL Site,39.740281,-86.218331
Seymour Recycling Corp.,0.0,Indiana,Jackson,NPL Site,38.9352,-85.9213
Wayne Waste Oil,42.33,Indiana,Whitley,NPL Site,41.1525,-85.476111
"American Chemical Service, Inc.",34.98,Indiana,Lake,NPL Site,41.5142,-87.4191
Bennett Stone Quarry,32.55,Indiana,Monroe,NPL Site,39.1902,-86.5612
"Northside Sanitary Landfill, Inc.",46.04,Indiana,Boone,NPL Site,40.028331,-86.273331
"Douglass Road/Uniroyal, Inc., Landfill",36.61,Indiana,St Joseph,NPL Site,41.7132,-86.1926
Himco Dump,42.31,Indiana,Elkhart,NPL Site,41.7073,-86.0084
"Tippecanoe Sanitary Landfill, Inc",42.24,Indiana,Tippecanoe,NPL Site,40.456111,-86.872219
"Lakeland Disposal Service, Inc.",34.1,Indiana,Kosciusko,NPL Site,41.1475,-85.91721899999999
Conrail Rail Yard (Elkhart),42.24,Indiana,Elkhart,NPL Site,41.6634,-86.0115
Continental Steel Corp.,31.85,Indiana,Howard,NPL Site,40.474169,-86.156299
Galen Myers Dump/Drum Salvage,42.24,Indiana,St Joseph,NPL Site,41.695839,-86.0875
Cam-Or Inc.,58.91,Indiana,La Porte,NPL Site,41.546528,-86.89930600000001
Prestolite Battery Division,40.63,Indiana,Knox,NPL Site,38.691669,-87.501661
Jacobsville Neighborhood Soil Contamination,35.52,Indiana,Vanderburgh,NPL Site,37.979296999999995,-87.563989
Elm Street Ground Water Contamination,50.0,Indiana,Vigo,NPL Site,39.476586,-87.41431899999999
Lusher Street Ground Water Contamination,50.0,Indiana,Elkhart,NPL Site,41.672922,-85.996225
"U.S. Smelter and Lead Refinery, Inc.",58.31,Indiana,Lake,NPL Site,41.616758000000004,-87.464046
Lane Street Ground Water Contamination,40.53,Indiana,Elkhart,NPL Site,41.716846999999994,-85.921006
Gary Development Landfill,30.0,Indiana,Lake,NPL Site,41.614061,-87.426447
Pike and Mulberry Streets PCE Plume,50.0,Indiana,Morgan,NPL Site,39.428661,-86.431789
Beck's Lake,50.0,Indiana,St Joseph,NPL Site,41.676581,-86.297514
Garden City Ground Water Plume,50.0,Indiana,Bartholomew,NPL Site,39.186075,-85.930472
Keystone Corridor Ground Water Contamination,50.0,Indiana,Marion,NPL Site,39.834722,-86.121667
North Shore Drive,50.0,Indiana,Elkhart,NPL Site,41.684722,-86.055
Kokomo Contaminated Ground Water Plume,50.0,Indiana,Howard,NPL Site,40.479444,-86.11412800000001
Broadway Street Corridor Groundwater Contamination,50.0,Indiana,Madison,NPL Site,40.1184,-85.6789
Franklin Street Groundwater Contamination,50.0,Indiana,Owen,NPL Site,39.2849,-86.7645
Cliff Drive Groundwater Contamination,50.0,Indiana,Cass,NPL Site,40.7432,-86.3803
Doepke Disposal (Holliday),47.46,Kansas,Johnson,NPL Site,39.033331,-94.8
Cherokee County,58.15,Kansas,Cherokee,NPL Site,37.003889,-94.82388900000001
Strother Field Industrial Park,33.62,Kansas,Cowley,NPL Site,37.170831,-97.03193900000001
Obee Road,33.62,Kansas,Reno,NPL Site,38.063889,-97.851389
Pester Refinery Co.,30.16,Kansas,Butler,NPL Site,37.8438,-96.8574
Formosa Mine,50.0,Oregon,Douglas,NPL Site,42.854471999999994,-123.38261100000001
Black Butte Mine,50.0,Oregon,Lane,NPL Site,43.579516,-123.06680800000001
North Ridge Estates,0.0,Oregon,Klamath,NPL Site,42.2648,-121.7465
Blosenski Landfill,30.57,Pennsylvania,Chester,NPL Site,40.02,-75.91055
Centre County Kepone,45.09,Pennsylvania,Centre,NPL Site,40.823611,-77.80833100000001
Douglassville Disposal,55.18,Pennsylvania,Berks,NPL Site,40.2575,-75.735281
Drake Chemical,38.52,Pennsylvania,Clinton,NPL Site,41.129169,-77.443611
Fischer & Porter Co.,29.07,Pennsylvania,Bucks,NPL Site,40.183889,-75.0925
Havertown PCP,38.34,Pennsylvania,Delaware,NPL Site,39.982781,-75.318611
Heleva Landfill,50.23,Pennsylvania,Lehigh,NPL Site,40.670831,-75.5625
Kimberton,29.44,Pennsylvania,Chester,NPL Site,40.12695,-75.575
Lindane Dump,51.62,Pennsylvania,Allegheny,NPL Site,40.6257,-79.7155
Lord-Shope Landfill,38.89,Pennsylvania,Erie,NPL Site,41.977781,-80.3525
Malvern TCE,46.69,Pennsylvania,Chester,NPL Site,40.061669,-75.56805
Metal Banks,33.23,Pennsylvania,Philadelphia,NPL Site,40.024169,-75.027781
Mill Creek Dump,49.31,Pennsylvania,Erie,NPL Site,42.093331,-80.152781
Old City of York Landfill,33.93,Pennsylvania,York,NPL Site,39.840281,-76.75971899999999
Osborne Landfill,54.6,Pennsylvania,Mercer,NPL Site,41.161111,-80.05833100000001
Palmerton Zinc Pile,42.93,Pennsylvania,Carbon,NPL Site,40.808331,-75.583339
Stanley Kessler,33.89,Pennsylvania,Montgomery,NPL Site,40.083889,-75.355
Berks Sand Pit,32.02,Pennsylvania,Berks,NPL Site,40.4646,-75.6273
East Mount Zion,41.01,Pennsylvania,York,NPL Site,40.0075,-76.66528100000001
Henderson Road,41.69,Pennsylvania,Montgomery,NPL Site,40.086939,-75.35555
Walsh Landfill,33.64,Pennsylvania,Chester,NPL Site,40.119719,-75.91528100000001
Raymark,53.42,Pennsylvania,Montgomery,NPL Site,40.179719,-75.098611
Industrial Lane,42.47,Pennsylvania,Northampton,NPL Site,40.665831,-75.228611
Tysons Dump,63.1,Pennsylvania,Montgomery,NPL Site,40.111389,-75.36278100000001
Letterkenny Army Depot (SE Area),34.21,Pennsylvania,Franklin,NPL Site,39.9957,-77.6444
Modern Sanitation Landfill,33.93,Pennsylvania,York,NPL Site,39.960561,-76.5925
MW Manufacturing,46.44,Pennsylvania,Montour,NPL Site,40.99,-76.641669
Brown's Battery Breaking,37.34,Pennsylvania,Berks,NPL Site,40.519439,-76.001389
Hunterstown Road,48.27,Pennsylvania,Adams,NPL Site,39.85305,-77.20611099999999
Westinghouse Elevator Co. Plant,36.37,Pennsylvania,Adams,NPL Site,39.857219,-77.24
Whitmoyer Laboratories,46.25,Pennsylvania,Lebanon,NPL Site,40.364719,-76.325
"Delta Quarries & Disposal, Inc./Stotler Landfill",41.08,Pennsylvania,Blair,NPL Site,40.553611,-78.35445
Shriver's Corner,46.13,Pennsylvania,Adams,NPL Site,39.8999,-77.2055
Keystone Sanitation Landfill,33.76,Pennsylvania,Adams,NPL Site,39.72445,-77.036111
Croydon TCE,31.6,Pennsylvania,Bucks,NPL Site,40.084934000000004,-74.8892
Revere Chemical Co.,31.31,Pennsylvania,Bucks,NPL Site,40.502781,-75.16888900000001
Bendix Flight Systems Division,33.74,Pennsylvania,Susquehanna,NPL Site,41.797360999999995,-75.88625
Bally Ground Water Contamination,37.93,Pennsylvania,Berks,NPL Site,40.3984,-75.5933
"CryoChem, Inc.",28.58,Pennsylvania,Berks,NPL Site,40.317219,-75.69166899999999
Eastern Diversified Metals,31.02,Pennsylvania,Schuylkill,NPL Site,40.829439,-75.9975
Naval Air Development Center (8 Waste Areas),57.93,Pennsylvania,Bucks,NPL Site,40.1996,-75.0642
Hellertown Manufacturing Co.,51.91,Pennsylvania,Northampton,NPL Site,40.595417,-75.340947
Novak Sanitary Landfill,42.31,Pennsylvania,Lehigh,NPL Site,40.6332,-75.5611
Commodore Semiconductor Group,42.35,Pennsylvania,Montgomery,NPL Site,40.1241,-75.4194
Saegertown Industrial Area,33.62,Pennsylvania,Crawford,NPL Site,41.71884,-80.142972
Avco Lycoming (Williamsport Division),42.24,Pennsylvania,Lycoming,NPL Site,41.244031,-77.041111
Bell Landfill,34.79,Pennsylvania,Bradford,NPL Site,41.633061,-76.389169
William Dick Lagoons,36.64,Pennsylvania,Chester,NPL Site,40.041939,-75.898061
Boarhead Farms,39.92,Pennsylvania,Bucks,NPL Site,40.545831,-75.125
Westinghouse Electric Corp. (Sharon Plant),41.33,Pennsylvania,Mercer,NPL Site,41.2434,-80.5058
Occidental Chemical Corp./Firestone Tire & Rubber Co.,45.91,Pennsylvania,Montgomery,NPL Site,40.232081,-75.61416899999999
North Penn - Area 1,35.57,Pennsylvania,Montgomery,NPL Site,40.3108,-75.3252
North Penn - Area 12,28.9,Pennsylvania,Montgomery,NPL Site,40.1807,-75.3537
North Penn - Area 7,35.57,Pennsylvania,Montgomery,NPL Site,40.218061,-75.278889
North Penn - Area 6,35.57,Pennsylvania,Montgomery,NPL Site,40.248331,-75.29563900000001
North Penn - Area 2,35.57,Pennsylvania,Montgomery,NPL Site,40.293889,-75.297781
North Penn - Area 5,35.57,Pennsylvania,Montgomery,NPL Site,40.2721,-75.2451
Tonolli Corp.,46.58,Pennsylvania,Carbon,NPL Site,40.850561,-75.881111
Butz Landfill,32.0,Pennsylvania,Monroe,NPL Site,41.0335,-75.3438
"Jacks Creek/Sitkin Smelting & Refining, Inc.",40.37,Pennsylvania,Mifflin,NPL Site,40.641531,-77.47528100000001
Elizabethtown Landfill,28.98,Pennsylvania,Lancaster,NPL Site,40.132781,-76.608189
A.I.W. Frank/Mid-County Mustang,42.4,Pennsylvania,Chester,NPL Site,40.031811,-75.6032
Tobyhanna Army Depot,37.93,Pennsylvania,Monroe,NPL Site,41.19305,-75.419439
Dublin TCE Site,28.9,Pennsylvania,Bucks,NPL Site,40.370892,-75.204897
Ohio River Park,42.24,Pennsylvania,Allegheny,NPL Site,40.518611,-80.1525
Crossley Farm,29.66,Pennsylvania,Berks,NPL Site,40.435417,-75.620611
American Thermostat Co.,33.61,New York,Greene,NPL Site,42.266939,-73.94111099999999
Brewster Well Field,37.93,New York,Putnam,NPL Site,41.401669,-73.6
"Facet Enterprises, Inc.",46.67,New York,Chemung,NPL Site,42.1325,-76.829169
Tooele Army Depot (North Area),53.95,Utah,Tooele,NPL Site,40.541669,-112.375
Shenandoah Road Ground Water Contamination,50.0,New York,Dutchess,NPL Site,41.526111,-73.792222
"Rodale Manufacturing Co., Inc.",50.0,Pennsylvania,Lehigh,NPL Site,40.531110999999996,-75.49333299999999
GE Moreau,58.21,New York,Saratoga,NPL Site,43.28305,-73.62916899999999
Hooker (S Area),51.62,New York,Niagara,NPL Site,43.0757,-79.0054
Kentucky Avenue Well Field,39.65,New York,Chemung,NPL Site,42.145831,-76.828331
"Mercury Refining, Inc.",44.58,New York,Albany,NPL Site,42.689719000000004,-73.80416899999999
Old Bethpage Landfill,58.83,New York,Nassau,NPL Site,40.756939,-73.44721899999999
Olean Well Field,44.46,New York,Cattaraugus,NPL Site,42.069439,-78.404719
Pollution Abatement Services,0.0,New York,Oswego,NPL Site,43.47,-76.483331
Port Washington Landfill,45.46,New York,Nassau,NPL Site,40.81805,-73.666661
Ramapo Landfill,44.73,New York,Rockland,NPL Site,41.14,-74.161389
Sinclair Refinery,53.9,New York,Allegany,NPL Site,42.1088,-77.9416
Solvent Savers,34.78,New York,Chenango,NPL Site,42.665,-75.876661
York Oil Co.,47.7,New York,Franklin,NPL Site,44.8225,-74.5751
General Motors (Central Foundry Division),40.71,New York,St Lawrence,NPL Site,44.983889000000005,-74.732781
Hudson River PCBs,54.66,New York,Rensselaer,NPL Site,43.1102,-73.5765
Vestal Water Supply Well 1-1,37.93,New York,Broome,NPL Site,42.0902,-76.0557
Sarney Farm,33.2,New York,Dutchess,NPL Site,41.75555,-73.561389
Hooker Chemical & Plastics Corp./Ruco Polymer Corp.,41.6,New York,Nassau,NPL Site,40.7575,-73.50416899999999
"Mattiace Petrochemical Co., Inc.",31.9,New York,Nassau,NPL Site,40.8608,-73.6432
Carroll & Dubies Sewage Disposal,33.74,New York,Orange,NPL Site,41.3942,-74.6681
Cortese Landfill,32.11,New York,Sullivan,NPL Site,41.600561,-75.065
Liberty Industrial Finishing,50.65,New York,Nassau,NPL Site,40.72625,-73.44888900000001
Johnstown City Landfill,48.36,New York,Fulton,NPL Site,43.043061,-74.393061
Volney Municipal Landfill,32.89,New York,Oswego,NPL Site,43.36055,-76.37916899999999
Claremont Polychemical,31.62,New York,Nassau,NPL Site,40.7576,-73.4432
"Tri-Cities Barrel Co., Inc.",44.06,New York,Broome,NPL Site,42.15805,-75.811939
Endicott Village Well Field,35.57,New York,Broome,NPL Site,42.086110999999995,-76.086111
Applied Environmental Services,41.15,New York,Nassau,NPL Site,40.823054,-73.646693
Colesville Municipal Landfill,30.26,New York,Broome,NPL Site,42.160419,-75.58945
"Goldisc Recordings, Inc.",33.39,New York,Suffolk,NPL Site,40.7745,-73.0647
Hertel Landfill,33.62,New York,Ulster,NPL Site,41.688061,-74.038889
Preferred Plating Corp.,35.06,New York,Suffolk,NPL Site,40.7158,-73.4253
"Nepera Chemical Co., Inc.",39.87,New York,Orange,NPL Site,41.4643,-74.2447
Byron Barrel & Drum,37.27,New York,Genesee,NPL Site,43.1191,-78.1103
FMC Corp. (Dublin Road Landfill),32.9,New York,Orleans,NPL Site,43.2172,-78.4417
"Robintech, Inc./National Pipe Co.",30.75,New York,Broome,NPL Site,42.1049,-75.9922
Haviland Complex,33.62,New York,Dutchess,NPL Site,41.771111,-73.908061
Griffiss Air Force Base,34.2,New York,Oneida,NPL Site,43.233331,-75.416661
Richardson Hill Road Landfill/Pond,34.86,New York,Delaware,NPL Site,42.252781,-75.249169
Malta Rocket Fuel Area,33.62,New York,Saratoga,NPL Site,42.963889,-73.75833100000001
Genzale Plating Co.,33.79,New York,Nassau,NPL Site,40.7153,-73.6777
Rowe Industries Ground Water Contamination,31.94,New York,Suffolk,NPL Site,40.982781,-72.3
Islip Municipal Sanitary Landfill,33.39,New York,Suffolk,NPL Site,40.8178,-73.1829
Circuitron Corp.,54.27,New York,Suffolk,NPL Site,40.7495,-73.4195
Sidney Landfill,29.36,New York,Delaware,NPL Site,42.2577,-75.243
"Jones Chemicals, Inc.",33.62,New York,Livingston,NPL Site,42.976531,-77.845561
Rosen Brothers Scrap Yard/Dump,51.35,New York,Cortland,NPL Site,42.591669,-76.17528100000001
Niagara Mohawk Power Corp. (Saratoga Spings Plant),35.48,New York,Saratoga,NPL Site,43.09,-73.776111
Plattsburgh Air Force Base,30.34,New York,Clinton,NPL Site,44.6575,-73.46471899999999
Seneca Army Depot,35.52,New York,Seneca,NPL Site,42.75,-76.85445
Brookhaven National Laboratory (USDOE),39.92,New York,Suffolk,NPL Site,40.86,-72.86958299999999
"Sealand Restoration, Inc.",29.36,New York,St Lawrence,NPL Site,44.703610999999995,-75.361531
Forest Glen Mobile Home Subdivision,0.0,New York,Niagara,NPL Site,43.1127,-78.9995
Li Tungsten Corp.,50.0,New York,Nassau,NPL Site,40.860929,-73.640773
Onondaga Lake,50.0,New York,Onondaga,NPL Site,43.069444,-76.208056
GCL Tie and Treating Inc.,48.54,New York,Delaware,NPL Site,42.300554999999996,-75.413333
Little Valley,0.0,New York,Cattaraugus,NPL Site,42.236667,-78.766944
Fulton Avenue,33.08,New York,Nassau,NPL Site,40.737337,-73.657844
Lehigh Valley Railroad,50.0,New York,Genesee,NPL Site,42.992028000000005,-77.933306
Computer Circuits,50.0,New York,Suffolk,NPL Site,40.813194,-73.24611
Mohonk Road Industrial Plant,50.0,New York,Ulster,NPL Site,41.816666999999995,-74.13444
Smithtown Ground Water Contamination,50.0,New York,Suffolk,NPL Site,40.887806,-73.174778
Stanton Cleaners Area Ground Water Contamination,35.76,New York,Nassau,NPL Site,40.782361,-73.734139
"Lawrence Aviation Industries, Inc.",50.0,New York,Suffolk,NPL Site,40.928139,-73.069194
Old Roosevelt Field Contaminated Ground Water Area,50.0,New York,Nassau,NPL Site,40.733610999999996,-73.618472
American Crossarm & Conduit Co.,30.44,Washington,Lewis,NPL Site,46.656939,-122.9689
"Crater Resources, Inc./Keystone Coke Co./Alan Wood Steel Co.",50.0,Pennsylvania,Montgomery,NPL Site,40.081666999999996,-75.3425
Gilt Edge Mine,50.0,South Dakota,Lawrence,NPL Site,44.328056,-103.674306
"MacKenzie Chemical Works, Inc.",50.0,New York,Suffolk,NPL Site,40.788889000000005,-73.205278
Landfill & Development Co.,33.62,New Jersey,Burlington,NPL Site,39.980561,-74.770839
Wasatch Chemical Co. (Lot 6),49.91,Utah,Salt Lake,NPL Site,40.7226,-111.8747
Nascolite Corp.,51.13,New Jersey,Cumberland,NPL Site,39.422219,-75.032781
"Crown Cleaners of Watertown, Inc.",49.0,New York,Jefferson,NPL Site,44.022944,-75.651861
Centralia Municipal Landfill,36.36,Washington,Lewis,NPL Site,46.696669,-122.9633
Foote Mineral Co.,50.0,Pennsylvania,Chester,NPL Site,40.04,-75.585278
Monticello Mill Tailings (USDOE),35.86,Utah,San Juan,NPL Site,37.863331,-109.3483
North Market Street,32.61,Washington,Spokane,NPL Site,47.7297,-117.3626
Utah Power & Light/American Barrel Co.,37.93,Utah,Salt Lake,NPL Site,40.7704,-111.9055
Cayuga County Ground Water Contamination,50.0,New York,Cayuga,NPL Site,42.880556,-76.6425
"Radiation Technology, Inc.",42.56,New Jersey,Morris,NPL Site,40.970831,-74.50555
Pasco Sanitary Landfill,44.46,Washington,Franklin,NPL Site,46.255281,-119.0478
Shieldalloy Corp.,58.75,New Jersey,Gloucester,NPL Site,39.543061,-75.02221899999999
Hanford 300-Area (USDOE),65.23,Washington,Benton,NPL Site,46.3703,-119.2752
Murray-Ohio Dump,46.44,Tennessee,Lawrence,NPL Site,35.2275,-87.361111
Diaz Chemical Corporation,50.0,New York,Orleans,NPL Site,43.222944,-78.029278
UGI Columbia Gas Plant,50.78,Pennsylvania,Lancaster,NPL Site,40.026207,-76.498389
Velsicol Chemical Corp. (Hardeman County),47.71,Tennessee,Hardeman,NPL Site,35.381939,-88.926389
Navy Ships Parts Control Center,50.0,Pennsylvania,Cumberland,NPL Site,40.223888,-76.99361
Peninsula Boulevard Ground Water Plume,50.0,New York,Nassau,NPL Site,40.642806,-73.706417
Hanford 100-Area (USDOE),46.38,Washington,Benton,NPL Site,46.7011,-119.4829
Hanford 200-Area (USDOE),69.05,Washington,Benton,NPL Site,46.563331,-119.6049
Hopewell Precision Area Contamination,50.0,New York,Dutchess,NPL Site,41.6116,-73.781481
Milan Army Ammunition Plant,58.15,Tennessee,Carroll,NPL Site,35.867781,-88.696111
Woodland Route 532 Dump,34.98,New Jersey,Burlington,NPL Site,39.829169,-74.492231
Butler Mine Tunnel,49.51,Pennsylvania,Luzerne,NPL Site,41.3268,-75.7899
"American Creosote Works, Inc. (Jackson Plant)",35.22,Tennessee,Madison,NPL Site,35.61,-88.8355
Jacobs Smelter,50.0,Utah,Tooele,NPL Site,40.454167,-112.358333
General Electric Co. (Spokane Shop),57.8,Washington,Spokane,NPL Site,47.6729,-117.3441
Willow Grove Naval Air and Air Reserve Station,50.0,Pennsylvania,Montgomery,NPL Site,40.19222,-75.1475
"Vineland Chemical Co., Inc.",59.16,New Jersey,Cumberland,NPL Site,39.510281,-75.056661
Mallory Capacitor Co.,29.44,Tennessee,Wayne,NPL Site,35.317638,-87.758611
Gowanus Canal,50.0,New York,Kings,NPL Site,40.681639000000004,-73.98733299999999
Newtown Creek,50.0,New York,Kings,NPL Site,40.715192,-73.930762
Bountiful/Woods Cross 5th South PCE Plume,50.0,Utah,Davis,NPL Site,40.887221999999994,-111.90388899999999
Fort Lewis Logistics Center,35.48,Washington,Pierce,NPL Site,47.1142,-122.5365
Arlington Blending & Packaging,39.03,Tennessee,Shelby,NPL Site,35.2996,-89.6577
Black River PCBs,48.03,New York,Jefferson,NPL Site,43.984269,-75.627753
"Breslube-Penn, Inc",50.0,Pennsylvania,Allegheny,NPL Site,40.501389,-80.146389
Wrigley Charcoal Plant,36.14,Tennessee,Hickman,NPL Site,35.9025,-87.35319399999999
Bangor Naval Submarine Base,55.91,Washington,Kitsap,NPL Site,47.699,-122.7131
Carrier Air Conditioning Co.,48.91,Tennessee,Shelby,NPL Site,35.043331,-89.690411
Dewey Loeffel Landfill,50.0,New York,Rensselaer,NPL Site,42.560957,-73.560496
Salford Quarry,50.0,Pennsylvania,Montgomery,NPL Site,40.251944,-75.382222
Oak Ridge Reservation (USDOE),51.13,Tennessee,Anderson,NPL Site,35.924719,-84.390139
Memphis Defense Depot (DLA),58.06,Tennessee,Shelby,NPL Site,35.093333,-90.003333
Ross Metals Inc.,37.65,Tennessee,Fayette,NPL Site,35.049167,-89.548611
Smalley-Piper,50.0,Tennessee,Shelby,NPL Site,35.044444,-89.685833
Smokey Mountain Smelters,50.0,Tennessee,Knox,NPL Site,35.919444,-83.925833
Alamo Contaminated Ground Water,50.0,Tennessee,Crockett,NPL Site,35.784153,-89.118022
Clinch River Corporation,48.03,Tennessee,Roane,NPL Site,35.93195,-84.539381
"Walker Machine Products, Inc.",50.0,Tennessee,Shelby,NPL Site,35.041589,-89.653469
Former Custom Cleaners,50.0,Tennessee,Shelby,NPL Site,35.115114,-89.945
Southside Chattanooga Lead,50.0,Tennessee,Hamilton,NPL Site,35.032552,-85.30055899999999
Crystal Chemical Co.,60.9,Texas,Harris,NPL Site,29.7206,-95.5644
"French, Ltd.",63.33,Texas,Harris,NPL Site,29.8796,-95.0739
Highlands Acid Pit,37.77,Texas,Harris,NPL Site,29.8141,-95.0786
"Motco, Inc.",0.0,Texas,Galveston,NPL Site,29.334719,-94.93333100000001
Sikes Disposal Pits,61.62,Texas,Harris,NPL Site,29.881669,-95.086669
United Creosoting Co.,37.29,Texas,Montgomery,NPL Site,30.331669,-95.45666899999999
Geneva Industries/Fuhrmann Energy,59.46,Texas,Harris,NPL Site,29.66,-95.25
Odessa Chromium #1,42.24,Texas,Ector,NPL Site,31.881669,-102.4033
"Koppers Co., Inc. (Texarkana Plant)",31.31,Texas,Bowie,NPL Site,33.416669,-94.065
Sol Lynn/Industrial Transformers,39.65,Texas,Harris,NPL Site,29.678889,-95.398611
"Petro-Chemical Systems, Inc. (Turtle Bayou)",29.94,Texas,Liberty,NPL Site,29.92,-94.688061
North Cavalcade Street,37.08,Texas,Harris,NPL Site,29.806669,-95.34916899999999
South Cavalcade Street,38.69,Texas,Harris,NPL Site,29.798331,-95.34778100000001
Lone Star Army Ammunition Plant,31.85,Texas,Bowie,NPL Site,33.4344,-94.2483
Longhorn Army Ammunition Plant,39.83,Texas,Harris,NPL Site,32.665,-94.123339
Texarkana Wood Preserving Co.,40.19,Texas,Bowie,NPL Site,33.408331,-94.05333900000001
Sheridan Disposal Services,30.16,Texas,Waller,NPL Site,30.2074,-96.1357
Pantex Plant (USDOE),51.22,Texas,Carson,NPL Site,35.321944,-101.563611
RSR Corp.,50.0,Texas,Dallas,NPL Site,32.776944,-96.8725
ALCOA (Point Comfort)/Lavaca Bay,50.0,Texas,Calhoun,NPL Site,28.650833000000002,-96.56222199999999
Tex-Tin Corp.,50.0,Texas,Galveston,NPL Site,29.356666999999998,-94.94166700000001
Sprague Road Ground Water Plume,43.21,Texas,Ector,NPL Site,31.918611,-102.428333
Jasper Creosoting Company Inc.,50.0,Texas,Jasper,NPL Site,30.933889,-93.9825
Rockwool Industries Inc.,48.0,Texas,Bell,NPL Site,31.051667,-97.438056
City of Perryton Well No. 2,50.0,Texas,Ochiltree,NPL Site,36.400556,-100.804722
"Many Diversified Interests, Inc.",32.07,Texas,Harris,NPL Site,29.767778000000003,-95.33166700000001
Hart Creosoting Company,48.0,Texas,Jasper,NPL Site,30.893611,-93.995278
Star Lake Canal,50.0,Texas,Jefferson,NPL Site,29.975,-93.917
Garland Creosoting,49.1,Texas,Gregg,NPL Site,32.442271999999996,-94.710903
State Road 114 Ground Water Plume,42.41,Texas,Hockley,NPL Site,33.599883,-102.40556099999999
"Malone Service Company, Inc.",50.0,Texas,Galveston,NPL Site,29.333056,-94.902778
Patrick Bayou,47.83,Texas,Harris,NPL Site,29.731944,-95.114583
Brine Service Company,50.0,Texas,Nueces,NPL Site,27.815371999999996,-97.508606
Gulfco Marine Maintenance,50.0,Texas,Brazoria,NPL Site,28.966846999999998,-95.28965600000001
Falcon Refinery,50.0,Texas,San Patricio,NPL Site,27.860725,-97.17930600000001
Jones Road Ground Water Plume,46.5,Texas,Harris,NPL Site,29.90465,-95.584319
Conroe Creosoting Company,48.0,Texas,Montgomery,NPL Site,30.318744,-95.435428
Air Force Plant #4 (General Dynamics),39.92,Texas,Tarrant,NPL Site,32.777781,-97.45
Sandy Beach Road Ground Water Plume,50.0,Texas,Tarrant,NPL Site,32.928472,-97.525
East 67th Street Ground Water Plume,50.0,Texas,Ector,NPL Site,31.908610999999997,-102.38583299999999
Bandera Road Ground Water Plume,50.0,Texas,Bexar,NPL Site,29.494433,-98.6205
Donna Reservoir and Canal System,50.0,Texas,Hidalgo,NPL Site,26.112285999999997,-98.086469
Midessa Ground Water Plume,50.0,Texas,Midland,NPL Site,31.90635,-102.23366899999999
San Jacinto River Waste Pits,50.0,Texas,Harris,NPL Site,29.7944,-95.0625
North East 2nd Street (formerly Attebury Grain Storage Facility),32.33,Texas,Swisher,NPL Site,34.745,-101.85333299999999
Van der Horst USA Corporation,48.0,Texas,Kaufman,NPL Site,32.734167,-96.273889
West County Road 112 Ground Water,50.0,Texas,Midland,NPL Site,31.964128999999996,-102.094921
US Oil Recovery,50.0,Texas,Harris,NPL Site,29.718389000000002,-95.221528
Circle Court Ground Water Plume,50.0,Texas,Parker,NPL Site,32.744778000000004,-97.679763
Main Street Ground Water Plume,50.0,Texas,Burnet,NPL Site,30.737147999999998,-98.22544
"Eldorado Chemical Co., Inc.",38.85,Texas,Bexar,NPL Site,29.568833,-98.350042
Highway 18 Ground Water,50.0,Texas,Winkler,NPL Site,31.851999999999997,-103.090681
"Lane Plating Works, Inc.",50.0,Texas,Dallas,NPL Site,32.687886,-96.769485
River City Metal Finishing,50.0,Texas,Bexar,NPL Site,29.430489,-98.731875
Delfasco Forge,50.0,Texas,Dallas,NPL Site,32.750269,-96.963228
Portland Cement (Kiln Dust 2 & 3),54.4,Utah,Salt Lake,NPL Site,40.7474,-111.9436
Hill Air Force Base,49.94,Utah,Davis,NPL Site,41.128331,-111.955
Ogden Defense Depot (DLA),45.1,Utah,Weber,NPL Site,41.266669,-112.0
Five Points PCE Plume,50.0,Utah,Davis,NPL Site,40.874583,-111.887028
Sharon Steel Corp (Farrell Works Disposal Area) ,50.0,Pennsylvania,Mercer,NPL Site,41.198611,-80.510278
New Cassel/Hicksville Ground Water Contamination,50.0,New York,Nassau,NPL Site,40.752446,-73.559781
U.S. Magnesium,59.18,Utah,Tooele,NPL Site,40.914993,-112.719949
Eighteenmile Creek,50.0,New York,Niagara,NPL Site,43.1813,-78.689544
Old Wilmington Road Ground Water Contamination,50.0,Pennsylvania,Chester,NPL Site,39.995833000000005,-75.908333
Moses Lake Wellfield Contamination,50.0,Washington,Grant,NPL Site,47.204722,-119.315556
700 South 1600 East PCE Plume,50.0,Utah,Salt Lake,NPL Site,40.753938,-111.848022
Wolff-Alport Chemical Company,50.0,New York,Queens,NPL Site,40.692671999999995,-73.901997
Ventron/Velsicol,51.38,New Jersey,Bergen,NPL Site,40.84,-74.07943900000001
Chisman Creek,47.19,Virginia,York,NPL Site,37.177,-76.4631
Wappinger Creek,50.0,New York,Dutchess,NPL Site,41.597684,-73.927136
Lower Darby Creek Area,50.0,Pennsylvania,Delaware,NPL Site,39.885556,-75.267778
Saltville Waste Disposal Ponds,29.52,Virginia,Smyth,NPL Site,36.883339,-81.783331
Valmont TCE,43.16,Pennsylvania,Luzerne,NPL Site,40.967778,-76.015556
Watson Johnson Landfill,70.71,Pennsylvania,Bucks,NPL Site,40.460139,-75.331861
Franklin Slag Pile (MDC),50.2,Pennsylvania,Philadelphia,NPL Site,39.983194,-75.083889
Letterkenny Army Depot (PDO Area),37.51,Pennsylvania,Franklin,NPL Site,40.0075,-77.64
Paoli Rail Yard,32.18,Pennsylvania,Chester,NPL Site,40.043189,-75.492919
Ryeland Road Arsenic,60.3,Pennsylvania,Berks,NPL Site,40.35395,-76.175361
Saint-Gobain Performance Plastics,50.0,New York,Rensselaer,NPL Site,42.8943,-73.3566
Price Battery,37.86,Pennsylvania,Berks,NPL Site,40.549507,-75.980228
Safety Light Corporation,70.71,Pennsylvania,Columbia,NPL Site,41.015278,-76.376389
Jackson Ceramix,30.22,Pennsylvania,Jefferson,NPL Site,41.139167,-78.80194399999999
Chem-Fab,50.0,Pennsylvania,Bucks,NPL Site,40.315958,-75.136003
BoRit Asbestos,50.0,Pennsylvania,Montgomery,NPL Site,40.153472,-75.228625
Metro Container Corporation,50.0,Pennsylvania,Delaware,NPL Site,39.824981,-75.399047
Baghurst Drive,50.0,Pennsylvania,Montgomery,NPL Site,40.299483,-75.45513299999999
Juncos Landfill,32.57,Puerto Rico,Juncos,NPL Site,18.2232,-65.9087
Vega Alta Public Supply Wells,42.24,Puerto Rico,Vega Alta,NPL Site,18.418060999999998,-66.330281
Upjohn Facility,41.92,Puerto Rico,Barceloneta,NPL Site,18.4292,-66.5901
Fibers Public Supply Wells,35.34,Puerto Rico,Guayama,NPL Site,17.9632,-66.1461
Vega Baja Solid Waste Disposal,50.37,Puerto Rico,Vega Baja,NPL Site,18.434306,-66.38972199999999
"Scorpio Recycling, Inc.",50.0,Puerto Rico,Toa Baja,NPL Site,18.409167,-66.231944
Pesticide Warehouse III,50.0,Puerto Rico,Manati,NPL Site,18.429139000000003,-66.458
Cidra Ground Water Contamination,50.0,Puerto Rico,Cidra,NPL Site,18.175276999999998,-66.16194399999999
Atlantic Fleet Weapons Training Area - Vieques,0.0,Puerto Rico,Vieques,NPL Site,18.13058,-65.3106
Pesticide Warehouse I,50.0,Puerto Rico,Arecibo,NPL Site,18.435556,-66.6
Maunabo Area Ground Water Contamination,50.0,Puerto Rico,Maunabo,NPL Site,18.005611,-65.90141700000001
San German Ground Water Contamination,50.0,Puerto Rico,San German,NPL Site,18.084472,-67.035306
"Papelera Puertorriquena, Inc.",34.69,Puerto Rico,Utuado,NPL Site,18.265194,-66.694908
Cabo Rojo Ground Water Contamination,50.0,Puerto Rico,Cabo Rojo,NPL Site,18.090725,-67.148325
Hormigas Ground Water Plume,50.0,Puerto Rico,Caguas,NPL Site,18.2206,-66.101
Corozal Well,50.0,Puerto Rico,Corozal,NPL Site,18.295710999999997,-66.286206
Dorado Ground Water Contamination,50.0,Puerto Rico,Dorado,NPL Site,18.42975602,-66.27832042
The Battery Recycling Company,56.66,Puerto Rico,Arecibo,NPL Site,18.453603,-66.694097
Davis Liquid Waste,47.25,Rhode Island,Providence,NPL Site,41.922219,-71.57776899999999
"Stamina Mills, Inc.",34.07,Rhode Island,Providence,NPL Site,41.9964,-71.5647
"Landfill & Resource Recovery, Inc. (L&RR)",49.58,Rhode Island,Providence,NPL Site,41.9795,-71.589
"Peterson/Puritan, Inc.",40.1,Rhode Island,Providence,NPL Site,41.929581,-71.4268
Picillo Farm,0.0,Rhode Island,Kent,NPL Site,41.671669,-71.70916899999999
Western Sand & Gravel,51.35,Rhode Island,Providence,NPL Site,41.9727,-71.595
Central Landfill,46.71,Rhode Island,Providence,NPL Site,41.808331,-71.534719
Rose Hill Regional Landfill,38.11,Rhode Island,Washington,NPL Site,41.470831,-71.49166899999999
Davisville Naval Construction Battalion Center,34.52,Rhode Island,Washington,NPL Site,41.6095,-71.47421999999999
Newport Naval Education/Training Center,32.25,Rhode Island,Newport,NPL Site,41.56445,-71.29346899999999
West Kingston Town Dump/URI Disposal Area,50.0,Rhode Island,Washington,NPL Site,41.496666999999995,-71.535278
Centredale Manor Restoration Project,70.71,Rhode Island,Providence,NPL Site,41.857667,-71.48725
"Carolawn, Inc.",32.04,South Carolina,Chester,NPL Site,34.686111,-80.94305
SCRDI Bluff Road,0.0,South Carolina,Richland,NPL Site,33.885419,-80.90875
SCRDI Dixiana,40.7,South Carolina,Lexington,NPL Site,33.90445,-81.063889
"Leonard Chemical Co., Inc.",47.1,South Carolina,York,NPL Site,34.851669,-80.904169
Kalama Specialty Chemicals,57.9,South Carolina,Beaufort,NPL Site,32.4734,-80.7401
Palmetto Wood Preserving,38.43,South Carolina,Lexington,NPL Site,33.920831,-81.060281
"Wamchem, Inc.",47.7,South Carolina,Beaufort,NPL Site,32.497219,-80.74166899999999
Medley Farm Drum Dump,31.58,South Carolina,Cherokee,NPL Site,34.9805,-81.6685
"Sangamo Weston, Inc./Twelve-Mile Creek/Lake Hartwell PCB Contamination",37.63,South Carolina,Pickens,NPL Site,34.895,-82.7232
Rock Hill Chemical Co.,40.29,South Carolina,York,NPL Site,34.9661,-80.9985
Helena Chemical Co. Landfill,33.89,South Carolina,Allendale,NPL Site,32.9412,-81.23899999999999
"Para-Chem Southern, Inc.",32.94,South Carolina,Greenville,NPL Site,34.7134,-82.23299999999999
Lexington County Landfill Area,37.93,South Carolina,Lexington,NPL Site,33.919581,-81.074169
Elmore Waste Disposal,31.45,South Carolina,Spartanburg,NPL Site,34.935905,-82.216599
Townsend Saw Chain Co.,35.94,South Carolina,Richland,NPL Site,34.10625,-80.83416899999999
Beaunit Corp. (Circular Knit & Dye),32.44,South Carolina,Greenville,NPL Site,34.698060999999996,-82.216111
Savannah River Site (USDOE),47.7,South Carolina,Aiken,NPL Site,33.348889,-81.73778100000001
"Koppers Co., Inc. (Charleston Plant)",50.0,South Carolina,Charleston,NPL Site,32.822083,-79.958333
Aqua-Tech Environmental Inc. (Groce Laboratories),50.0,South Carolina,Spartanburg,NPL Site,34.9328,-82.1725
Parris Island Marine Corps Recruit Depot,50.0,South Carolina,Beaufort,NPL Site,32.3528,-80.7031
Shuron Inc.,68.26,South Carolina,Barnwell,NPL Site,33.236694,-81.375778
Macalloy Corporation,50.0,South Carolina,Charleston,NPL Site,32.838056,-79.951194
Brewer Gold Mine,50.0,South Carolina,Chester,NPL Site,34.652194,-80.411472
Barite Hill/Nevada Goldfields,50.0,South Carolina,McCormick,NPL Site,33.873090000000005,-82.30067
US Finishing/Cone Mills,50.0,South Carolina,Greenville,NPL Site,34.883292,-82.426303
Burlington Industries Cheraw,48.0,South Carolina,Chester,NPL Site,34.698689,-79.912786
Ellsworth Air Force Base,33.62,South Dakota,Meade,NPL Site,44.148061,-103.0958
U.S. Titanium,34.78,Virginia,Nelson,NPL Site,37.708331,-79.016669
Pacific Sound Resources,70.71,Washington,King,NPL Site,47.582332,-122.36666699999999
Puget Sound Naval Shipyard Complex,50.0,Washington,Kitsap,NPL Site,47.559166,-122.647222
"Avtex Fibers, Inc.",35.39,Virginia,Warren,NPL Site,38.925561,-78.211669
Magna Metals,50.0,New York,Westchester,NPL Site,41.2745,-73.8704
Jackson Park Housing Complex (USNAVY),50.0,Washington,Kitsap,NPL Site,47.588609999999996,-122.695972
Arsenic Mine,0.0,New York,Putnam,NPL Site,41.457972,-73.715285
L.A. Clarke & Son,34.24,Virginia,Spotsylvania,NPL Site,38.236111,-77.4325
Allied Chemical & Ironton Coke,47.05,Ohio,Lawrence,NPL Site,38.5057,-82.65799999999999
Defense General Supply Center (DLA),33.85,Virginia,Chesterfield,NPL Site,37.4189,-77.4485
Old Navy Dump/Manchester Laboratory (USEPA/NOAA),50.0,Washington,Kitsap,NPL Site,47.574443,-122.548055
Big D Campground,30.77,Ohio,Ashtabula,NPL Site,41.904169,-80.652781
Cinnaminson Township (Block 702) Ground Water Contamination,37.93,New Jersey,Burlington,NPL Site,40.0175,-74.9862
First Piedmont Corp. Rock Quarry (Route 719),30.16,Virginia,Pittsylvania,NPL Site,36.665831,-79.348611
Fried Industries,33.61,New Jersey,Middlesex,NPL Site,40.4424,-74.4412
"Atlantic Wood Industries, Inc.",37.14,Virginia,Portsmouth City,NPL Site,36.8065,-76.29899999999999
"Waldick Aerospace Devices, Inc.",44.86,New Jersey,Monmouth,NPL Site,40.143,-74.0613
Naval Weapons Station Earle (Site A),29.65,New Jersey,Monmouth,NPL Site,40.264581,-74.16291899999999
Naval Air Engineering Center,50.53,New Jersey,Ocean,NPL Site,40.029719,-74.369161
Boomsnub/Airco,0.0,Washington,Clark,NPL Site,45.677222,-122.62166699999999
"Monitor Devices, Inc./Intercircuits, Inc.",41.93,New Jersey,Monmouth,NPL Site,40.185280999999996,-74.11971899999999
Dayco Corp./L.E. Carpenter Co.,46.13,New Jersey,Morris,NPL Site,40.903331,-74.5775
Cosden Chemical Coatings Corp.,33.86,New Jersey,Burlington,NPL Site,40.058183,-74.925899
"Curcio Scrap Metal, Inc.",34.37,New Jersey,Bergen,NPL Site,40.8907,-74.1035
Brook Industrial Park,58.12,New Jersey,Somerset,NPL Site,40.560139,-74.536111
Pohatcong Valley Ground Water Contamination,28.9,New Jersey,Warren,NPL Site,40.75,-75.0
"Kauffman & Minteer, Inc.",28.51,New Jersey,Burlington,NPL Site,40.0363,-74.694
Picatinny Arsenal (USARMY),42.92,New Jersey,Morris,NPL Site,40.916669,-74.583339
South Jersey Clothing Co.,42.24,New Jersey,Atlantic,NPL Site,39.5206,-74.9491
Higgins Disposal,30.87,New Jersey,Somerset,NPL Site,40.3875,-74.61528100000001
Higgins Farm,30.47,New Jersey,Somerset,NPL Site,40.406389000000004,-74.60278100000001
Global Sanitary Landfill,45.92,New Jersey,Middlesex,NPL Site,40.446389,-74.286111
Garden State Cleaners Co.,28.9,New Jersey,Atlantic,NPL Site,39.519031,-74.94945
Federal Aviation Administration Technical Center,39.65,New Jersey,Atlantic,NPL Site,39.458331,-74.583339
Chemical Insecticide Corp.,37.93,New Jersey,Middlesex,NPL Site,40.5274,-74.368
White Chemical Corp.,0.0,New Jersey,Essex,NPL Site,40.698484,-74.19824200000001
Horseshoe Road,51.37,New Jersey,Middlesex,NPL Site,40.484722,-74.31944399999999
Franklin Burn,40.67,New Jersey,Gloucester,NPL Site,39.594444,-75.025
Welsbach & General Gas Mantle (Camden Radiation),41.46,New Jersey,Camden,NPL Site,39.919722,-75.121944
"Cornell Dubilier Electronics, Inc.",50.27,New Jersey,Middlesex,NPL Site,40.576389,-74.414167
LCP Chemicals Inc.,50.0,New Jersey,Union,NPL Site,40.6075,-74.210278
Puchack Well Field,50.0,New Jersey,Camden,NPL Site,39.976667,-75.05194399999999
Zschiegner Refining,50.0,New Jersey,Monmouth,NPL Site,40.145833,-74.2
Middlesex Sampling Plant (USDOE),50.0,New Jersey,Middlesex,NPL Site,40.569806,-74.49319399999999
United States Avenue Burn,50.0,New Jersey,Camden,NPL Site,39.834167,-74.963889
Emmell's Septic Landfill,50.0,New Jersey,Atlantic,NPL Site,39.500694,-74.543611
"Martin Aaron, Inc.",50.0,New Jersey,Camden,NPL Site,39.926111,-75.119167
Iceland Coin Laundry Area Ground Water Plume,30.3,New Jersey,Cumberland,NPL Site,39.45725,-75.04725
Lightman Drum Company,42.03,New Jersey,Camden,NPL Site,39.729721999999995,-74.905917
McGuire Air Force Base #1,47.2,New Jersey,Burlington,NPL Site,40.018056,-74.593611
Diamond Head Oil Refinery Div.,30.0,New Jersey,Hudson,NPL Site,40.747222,-74.132194
Quanta Resources,50.0,New Jersey,Bergen,NPL Site,40.804306,-73.98916700000001
Woodbrook Road Dump,50.0,New Jersey,Middlesex,NPL Site,40.561564000000004,-74.402914
Atlantic Resources Corporation,50.0,New Jersey,Middlesex,NPL Site,40.486111,-74.31944399999999
White Swan Cleaners/Sun Cleaners Area Ground Water Contamination,41.63,New Jersey,Monmouth,NPL Site,40.135444,-74.063133
Standard Chlorine,50.0,New Jersey,Hudson,NPL Site,40.75,-74.097222
Rolling Knolls Landfill,58.31,New Jersey,Morris,NPL Site,40.729528,-74.447861
Sherwin-Williams/Hilliards Creek,50.0,New Jersey,Camden,NPL Site,39.835526,-74.964977
"Matteo & Sons, Inc.",50.0,New Jersey,Gloucester,NPL Site,39.854721999999995,-75.168306
Ringwood Mines/Landfill,52.58,New Jersey,Passaic,NPL Site,41.136669,-74.2725
"Curtis Specialty Papers, Inc.",50.0,New Jersey,Hunterdon,NPL Site,40.561758000000005,-75.089842
Raritan Bay Slag,50.0,New Jersey,Middlesex,NPL Site,40.464589000000004,-74.25801700000001
Mansfield Trail Dump,50.0,New Jersey,Sussex,NPL Site,40.9289443,-74.69959990000001
Garfield Ground Water Contamination,0.0,New Jersey,Bergen,NPL Site,40.871858,-74.106431
Orange Valley Regional Ground Water Contamination,50.0,New Jersey,Essex,NPL Site,40.779936,-74.225267
"Matlack, Inc.",45.54,New Jersey,Gloucester,NPL Site,39.763106,-75.32216899999999
Riverside Industrial Park,50.0,New Jersey,Essex,NPL Site,40.765722,-74.159084
Pierson's Creek,47.99,New Jersey,Essex,NPL Site,40.7163,-74.1452
Unimatic Manufacturing Corporation,50.0,New Jersey,Essex,NPL Site,40.878792,-74.269155
Former Kil-Tone Company,65.29,New Jersey,Cumberland,NPL Site,39.47841,-75.02548900000001
Homestake Mining Co.,34.21,New Mexico,Cibola,NPL Site,35.243331,-107.8633
South Valley,0.0,New Mexico,Bernalillo,NPL Site,35.0441,-106.6411
United Nuclear Corp.,30.36,New Mexico,McKinley,NPL Site,35.643330999999996,-108.5
Cimarron Mining Corp.,38.93,New Mexico,Lincoln,NPL Site,33.643469,-105.8647
Prewitt Abandoned Refinery,44.24,New Mexico,McKinley,NPL Site,35.3596,-108.0348
Lee Acres Landfill (USDOI),39.37,New Mexico,San Juan,NPL Site,36.7111,-108.0921
AT&SF (Albuquerque),50.0,New Mexico,Bernalillo,NPL Site,35.033333,-106.65527800000001
North Railroad Avenue Plume,50.0,New Mexico,Rio Arriba,NPL Site,35.9914,-106.08138400000001
Fruit Avenue Plume,50.0,New Mexico,Bernalillo,NPL Site,35.086444,-106.640611
Griggs & Walnut Ground Water Plume,50.0,New Mexico,Dona Ana,NPL Site,32.315556,-106.76
McGaffey and Main Groundwater Plume,50.0,New Mexico,Chaves,NPL Site,33.379792,-104.518722
Grants Chlorinated Solvents Plume,50.0,New Mexico,Cibola,NPL Site,35.155778000000005,-107.84388899999999
Eagle Picher Carefree Battery,50.0,New Mexico,Socorro,NPL Site,34.099517,-106.90123899999999
Chevron Questa Mine,50.0,New Mexico,Taos,NPL Site,36.700294,-105.49770600000001
Jackpile-Paguate Uranium Mine,50.0,New Mexico,Cibola,NPL Site,35.133728000000005,-107.347372
Lea and West Second Street,50.0,New Mexico,Chaves,NPL Site,33.394079,-104.529951
Carson River Mercury Site,39.07,Nevada,Churchill,NPL Site,39.23195,-119.5892
Saunders Supply Co.,36.88,Virginia,Suffolk City,NPL Site,36.86055,-76.58166899999999
Oeser Co,69.34,Washington,Whatcom,NPL Site,48.770278000000005,-122.514444
Palermo Well Field Ground Water Contamination,50.0,Washington,Thurston,NPL Site,47.001667,-122.90416699999999
"Rentokil, Inc. (Virginia Wood Preserving Division)",30.34,Virginia,Henrico,NPL Site,37.635831,-77.50361099999999
Chem-Dyne,0.0,Ohio,Butler,NPL Site,39.4079,-84.552
E.H. Schilling Landfill,34.56,Ohio,Lawrence,NPL Site,38.5725,-82.75555
Fields Brook,44.95,Ohio,Ashtabula,NPL Site,41.8915,-80.7754
Fultz Landfill,39.42,Ohio,Guernsey,NPL Site,39.984719,-81.541661
Nease Chemical,47.19,Ohio,Columbiana,NPL Site,40.916669,-80.891669
New Lyme Landfill,31.19,Ohio,Ashtabula,NPL Site,41.584719,-80.729161
"Pristine, Inc.",35.25,Ohio,Hamilton,NPL Site,39.236111,-84.43723100000001
Old Mill,35.95,Ohio,Ashtabula,NPL Site,41.6601,-80.8456
Skinner Landfill,30.23,Ohio,Butler,NPL Site,39.333331,-84.39971899999999
Summit National,52.28,Ohio,Portage,NPL Site,41.023999999999994,-81.0971
Van Dale Junkyard,33.03,Ohio,Washington,NPL Site,39.43195,-81.4025
Zanesville Well Field,35.59,Ohio,Muskingum,NPL Site,39.967781,-81.992231
Miami County Incinerator,57.84,Ohio,Miami,NPL Site,40.074169,-84.22416899999999
Powell Road Landfill,31.62,Ohio,Montgomery,NPL Site,39.833331,-84.16
South Point Plant,46.33,Ohio,Lawrence,NPL Site,38.4375,-82.591669
"United Scrap Lead Co., Inc.",58.15,Ohio,Miami,NPL Site,40.008889,-84.198611
Industrial Excess Landfill,51.13,Ohio,Stark,NPL Site,40.968331,-81.404169
"Sanitary Landfill Co. (Industrial Waste Disposal Co., Inc.)",35.57,Ohio,Montgomery,NPL Site,39.716581,-84.201531
Ormet Corp.,46.44,Ohio,Monroe,NPL Site,39.705,-80.841669
"TRW, Inc. (Minerva Plant)",38.08,Ohio,Stark,NPL Site,40.745,-81.09
Wright-Patterson Air Force Base,57.85,Ohio,Greene,NPL Site,39.8071,-84.0697
Reilly Tar & Chemical Corp. (Dover Plant),31.38,Ohio,Tuscarawas,NPL Site,40.5175,-81.479
Feed Materials Production Center (USDOE),57.56,Ohio,Butler,NPL Site,39.29945,-84.688331
Mound Plant (USDOE),34.61,Ohio,Montgomery,NPL Site,39.6264,-84.2862
North Sanitary Landfill,50.0,Ohio,Montgomery,NPL Site,39.78611,-84.1525
Lammers Barrel,69.33,Ohio,Greene,NPL Site,39.726389000000005,-84.08430600000001
Peters Cartridge Factory,50.0,Ohio,Warren,NPL Site,39.350694,-84.242222
Copley Square Plaza,50.0,Ohio,Summit,NPL Site,41.092839,-81.61747199999999
East Troy Contaminated Aquifer,50.0,Ohio,Miami,NPL Site,40.0381,-84.1961
Behr Dayton Thermal System VOC Plume,50.0,Ohio,Montgomery,NPL Site,39.784444,-84.17944399999999
New Carlisle Landfill,46.4,Ohio,Clark,NPL Site,39.923333,-84.033694
Little Scioto River,48.03,Ohio,Marion,NPL Site,40.593061,-83.183461
Milford Contaminated Aquifer,50.0,Ohio,Clermont,NPL Site,39.177814,-84.293786
West Troy Contaminated Aquifer,50.0,Ohio,Miami,NPL Site,40.046408,-84.208928
Valley Pike VOCs,50.0,Ohio,Montgomery,NPL Site,39.797222,-84.1325
Donnelsville Contaminated Aquifer,35.06,Ohio,Clark,NPL Site,39.920558,-83.948728
Hardage/Criner,51.01,Oklahoma,McClain,NPL Site,34.9764,-97.5809
Tar Creek (Ottawa County),58.15,Oklahoma,Ottawa,NPL Site,36.943603,-94.841914
Tinker Air Force Base (Soldier Creek/Building 3001),42.24,Oklahoma,Oklahoma,NPL Site,35.413973,-97.401494
Oklahoma Refining Co.,46.01,Oklahoma,Caddo,NPL Site,34.898331,-98.193339
Tulsa Fuel and Manufacturing,50.0,Oklahoma,Tulsa,NPL Site,36.34625,-95.848611
Hudson Refinery,29.34,Oklahoma,Payne,NPL Site,35.985556,-96.77972199999999
Wilcox Oil Company,50.0,Oklahoma,Creek,NPL Site,35.840804999999996,-96.380193
Eagle Industries,50.0,Oklahoma,Oklahoma,NPL Site,35.435631,-97.33750699999999
Teledyne Wah Chang,54.27,Oregon,Linn,NPL Site,44.66,-123.0633
Umatilla Army Depot (Lagoons),31.31,Oregon,Morrow,NPL Site,45.836110999999995,-119.45
"United Chrome Products, Inc.",31.07,Oregon,Benton,NPL Site,44.5042,-123.2861
Union Pacific Railroad Co. Tie-Treating Plant,37.93,Oregon,Wasco,NPL Site,45.5986,-121.1651
Northwest Pipe & Casing/Hall Process Co,51.09,Oregon,Clackamas,NPL Site,45.416333,-122.56388899999999
