Site Name,Site Score,State,normalized_county,Status,Latitude,Longitude,Fips
Teledyne Semiconductor,35.35,California,Santa Clara,NPL Site,37.4108,-122.0797,6085
"TRW Microwave, Inc. (Building 825)",31.94,California,Santa Clara,NPL Site,37.3846,-122.0085,6085
Fairchild Semiconductor Corp. (Mountain View Plant),31.94,California,Santa Clara,NPL Site,37.4012,-122.0542,6085
Sacramento Army Depot,44.46,California,Sacramento,NPL Site,38.520281,-121.3958,6067
Intel Corp. (Mountain View Plant),29.76,California,Santa Clara,NPL Site,37.3962,-122.0566,6085
Raytheon Corp.,29.76,California,Santa Clara,NPL Site,37.3975,-122.0533,6085
Moffett Naval Air Station,29.49,California,Santa Clara,NPL Site,37.411389,-122.0522,6085
"Waste Disposal, Inc.",34.6,California,Los Angeles,NPL Site,33.95,-118.055,6037
Riverbank Army Ammunition Plant,63.94,California,Stanislaus,NPL Site,37.71695,-120.9181,6099
Watkins-Johnson Co. (Stewart Division Plant),28.9,California,Santa Cruz,NPL Site,37.051111,-122.029028,6087
Fresno Municipal Sanitary Landfill,35.57,California,Fresno,NPL Site,36.704169,-119.8261,6019
Barstow Marine Corps Logistics Base,37.93,California,San Bernardino,NPL Site,34.878331,-116.9389,6071
United Heckathorn Co.,38.49,California,Contra Costa,NPL Site,37.9226,-122.3654,6013
"Brown & Bryant, Inc. (Arvin Plant)",53.36,California,Kern,NPL Site,35.203061,-118.822,6029
Newmark Ground Water Contamination,35.57,California,San Bernardino,NPL Site,34.171811,-117.3131,6071
Hewlett-Packard (620-640 Page Mill Road),29.76,California,Santa Clara,NPL Site,37.4214,-122.1434,6085
Fort Ord,42.24,California,Monterey,NPL Site,36.625,-121.75,6053
"CTS Printex, Inc.",33.62,California,Santa Clara,NPL Site,37.4165,-122.0872,6085
Camp Pendleton Marine Corps Base,33.79,California,San Diego,NPL Site,33.306669,-117.3408,6073
Intersil Inc./Siemens Components,28.9,California,Santa Clara,NPL Site,37.3361,-122.0015,6085
Sulphur Bank Mercury Mine,44.42,California,Lake,NPL Site,39.00555,-122.6703,6033
March Air Force Base,31.94,California,Riverside,NPL Site,33.906389000000004,-117.2557,6065
"Spectra-Physics, Inc.",37.2,California,Santa Clara,NPL Site,37.40805,-122.0786,6085
Crazy Horse Sanitary Landfill,37.93,California,Monterey,NPL Site,36.8026,-121.6186,6053
El Toro Marine Corps Air Station,37.43,California,Orange,NPL Site,33.676669,-117.7176,6059
George Air Force Base,33.62,California,San Bernardino,NPL Site,34.595,-117.3833,6071
"Advanced Micro Devices, Inc. (Building 915)",31.94,California,Santa Clara,NPL Site,37.3868,-122.0066,6085
"Synertek, Inc. (Building 1)",31.94,California,Santa Clara,NPL Site,37.3773,-121.9719,6085
Modesto Ground Water Contamination,28.9,California,Stanislaus,NPL Site,37.6591,-120.9964,6099
Jasco Chemical Corp.,35.36,California,Santa Clara,NPL Site,37.3988,-122.0882,6085
Pacific Coast Pipe Lines,46.01,California,Ventura,NPL Site,34.404169,-118.9028,6111
Hunters Point Naval Shipyard,48.77,California,San Francisco,NPL Site,37.72229,-122.36732,6075
Lawrence Livermore National Laboratory (Site 300) (USDOE),31.58,California,Alameda,NPL Site,37.644306,-121.576667,6001
Tracy Defense Depot (USARMY),37.16,California,San Joaquin,NPL Site,37.715281,-121.3911,6077
Travis Air Force Base,29.49,California,Solano,NPL Site,38.26445,-121.9332,6095
Edwards Air Force Base,33.62,California,Kern,NPL Site,34.949439,-117.8857,6029
Industrial Waste Processing,51.13,California,Fresno,NPL Site,36.8425,-119.8094,6019
McCormick & Baxter Creosoting Co.,74.86,California,San Joaquin,NPL Site,37.947851,-121.306635,6077
Jet Propulsion Laboratory (NASA),50.0,California,Los Angeles,NPL Site,34.201184999999995,-118.167434,6037
Concord Naval Weapons Station,50.0,California,Contra Costa,NPL Site,38.049444,-122.0,6013
Laboratory for Energy-Related Health Research/Old Campus Landfill (USDOE),50.0,California,Solano,NPL Site,38.51875,-121.75125,6095
Frontier Fertilizer,35.04,California,Yolo,NPL Site,38.553055,-121.673333,6113
Pemaco Maywood,45.23,California,Los Angeles,NPL Site,33.985417,-118.17125,6037
Lava Cap Mine,33.66,California,Nevada,NPL Site,39.228056,-120.969861,6057
Omega Chemical Corporation,30.94,California,Los Angeles,NPL Site,33.969722,-118.042222,6037
Alameda Naval Air Station,50.0,California,Alameda,NPL Site,37.78888900000001,-122.33,6001
Leviathan Mine,50.0,California,Alpine,NPL Site,38.703889,-119.656111,6003
Alark Hard Chrome,50.5,California,Riverside,NPL Site,33.991886,-117.367186,6065
Del Amo,47.12,California,Los Angeles,NPL Site,33.846639,-118.289472,6037
Cooper Drum Company,50.0,California,Los Angeles,NPL Site,33.946971999999995,-118.179694,6037
Casmalia Resources,30.0,California,Santa Barbara,NPL Site,34.863125,-120.544303,6083
AMCO Chemical,50.0,California,Alameda,NPL Site,37.8025,-122.29375,6001
Fairchild Semiconductor Corp. (South San Jose Plant),44.46,California,Santa Clara,NPL Site,37.2326,-121.7748,6085
Lorentz Barrel & Drum Co.,33.94,California,Santa Clara,NPL Site,37.318611,-121.8644,6085
J.H. Baxter & Co.,34.78,California,Siskiyou,NPL Site,41.4364,-122.3707,6093
Klau/Buena Vista Mine,50.0,California,San Luis Obispo,NPL Site,35.6259,-120.8967,6079
Halaco Engineering Company,58.31,California,Ventura,NPL Site,34.138889,-119.181944,6111
"Rockets, Fireworks, and Flares (RFF)",50.0,California,San Bernardino,NPL Site,34.153683,-117.416567,6071
New Idria Mercury Mine,31.66,California,San Benito,NPL Site,36.418392,-120.672511,6069
Blue Ledge Mine,50.28,California,Siskiyou,NPL Site,41.959961,-123.107442,6093
Jervis B. Webb Co.,45.76,California,Los Angeles,NPL Site,33.950325,-118.178017,6037
Southern Avenue Industrial Area,50.0,California,Los Angeles,NPL Site,33.946178,-118.176922,6037
Argonaut Mine,58.31,California,Amador,NPL Site,38.353333,-120.78575,6005
Copper Bluff Mine,50.0,California,Humboldt,NPL Site,41.109972,-123.686,6023
California Gulch,55.84,Colorado,Lake,NPL Site,39.236111,-106.2692,8065
"Central City, Clear Creek",51.39,Colorado,Clear Creek,NPL Site,39.75,-105.5,8019
Denver Radium Site,44.11,Colorado,Denver,NPL Site,39.716669,-105.0,8031
Marshall Landfill,0.0,Colorado,Boulder,NPL Site,39.95,-105.2,8013
Broderick Wood Products,35.13,Colorado,Adams,NPL Site,39.8148,-104.9989,8001
Lincoln Park,31.31,Colorado,Fremont,NPL Site,38.4,-105.2333,8043
Lowry Landfill,48.36,Colorado,Arapahoe,NPL Site,39.643331,-104.7083,8005
Eagle Mine,47.19,Colorado,Eagle,NPL Site,39.533331,-106.3917,8037
Uravan Uranium Project (Union Carbide Corp.),43.53,Colorado,Montrose,NPL Site,38.366661,-108.7483,8085
Rocky Flats Plant (USDOE),64.32,Colorado,Jefferson,NPL Site,39.894169,-105.2017,8059
Rocky Mountain Arsenal (USARMY),58.15,Colorado,Adams,NPL Site,39.835561,-104.8842,8001
Chemical Sales Co.,37.93,Colorado,Denver,NPL Site,39.780831,-104.9136,8031
Air Force Plant PJKS,42.93,Colorado,Jefferson,NPL Site,39.514219,-105.1337,8059
Summitville Mine,50.0,Colorado,Grand,NPL Site,37.43,-106.585,8049
Vasquez Boulevard and I-70,50.0,Colorado,Denver,NPL Site,39.791667,-104.958333,8031
Captain Jack Mill,50.56,Colorado,Boulder,NPL Site,40.055833,-105.503611,8013
Standard Mine,50.0,Colorado,Gunnison,NPL Site,38.879167,-107.07389,8051
Nelson Tunnel/Commodore Waste Rock,48.03,Colorado,Mineral,NPL Site,37.87083300000001,-106.94,8079
Colorado Smelter,50.0,Colorado,Pueblo,NPL Site,38.2491,-104.608,8101
Bonita Peak Mining District,50.0,Colorado,San Juan,NPL Site,37.904031,-107.616619,8111
Beacon Heights Landfill,46.77,Connecticut,New Haven,NPL Site,41.43195,-73.03528100000003,9009
"Laurel Park, Inc.",0.0,Connecticut,New Haven,NPL Site,41.476939,-73.07166099999998,9009
Solvents Recovery Service of New England,44.93,Connecticut,Hartford,NPL Site,41.6196,-72.878,9003
Yaworski Waste Lagoon,36.72,Connecticut,Windham,NPL Site,41.66945,-71.964161,9015
Kellogg-Deering Well Field,39.92,Connecticut,Fairfield,NPL Site,41.13055,-73.43195,9001
Durham Meadows,33.94,Connecticut,Middlesex,NPL Site,41.48111,-72.681388,9007
Linemaster Switch Corp.,33.71,Connecticut,Windham,NPL Site,41.940561,-71.966939,9015
Barkhamsted-New Hartford Landfill,38.05,Connecticut,Litchfield,NPL Site,41.980556,-73.04722199999998,9005
Gallup's Quarry,46.29,Connecticut,Windham,NPL Site,41.665281,-71.924161,9015
Precision Plating Corp.,49.1,Connecticut,Tolland,NPL Site,41.84975,-72.447911,9013
New London Submarine Base,36.53,Connecticut,New London,NPL Site,41.400139,-72.08708100000003,9011
"Raymark Industries, Inc.",0.0,Connecticut,Fairfield,NPL Site,41.201278,-73.117222,9001
Scovill Industrial Landfill,50.0,Connecticut,New Haven,NPL Site,41.550389,-73.010639,9009
Army Creek Landfill,69.92,Delaware,New Castle,NPL Site,39.653061,-75.608331,10003
Delaware Sand & Gravel Landfill,46.6,Delaware,New Castle,NPL Site,39.651389,-75.60278100000002,10003
Delaware City PVC Plant,30.55,Delaware,New Castle,NPL Site,39.586111,-75.649439,10003
"Harvey & Knott Drum, Inc.",30.77,Delaware,New Castle,NPL Site,39.573331,-75.770839,10003
Tybouts Corner Landfill,0.0,Delaware,New Castle,NPL Site,39.6125,-75.653339,10003
NCR Corp. (Millsboro Plant),38.21,Delaware,Sussex,NPL Site,38.5775,-75.283061,10005
Halby Chemical Co.,30.9,Delaware,New Castle,NPL Site,39.718611,-75.537219,10003
"Standard Chlorine of Delaware, Inc.",35.42,Delaware,New Castle,NPL Site,39.599581,-75.63583100000002,10003
Dover Gas Light Co.,35.57,Delaware,Kent,NPL Site,39.1558,-75.5277,10001
"E.I. du Pont de Nemours & Co., Inc. (Newport Pigment Plant Landfill)",51.91,Delaware,New Castle,NPL Site,39.708331,-75.609169,10003
"Koppers Co., Inc. (Newport Plant)",33.56,Delaware,New Castle,NPL Site,39.704719,-75.624169,10003
Dover Air Force Base,35.89,Delaware,Kent,NPL Site,39.127781,-75.466669,10001
"Chem-Solv, Inc.",37.93,Delaware,Kent,NPL Site,39.2216,-75.5764,10001
Newark South Ground Water Plume,50.0,Delaware,New Castle,NPL Site,39.653889,-75.735,10003
Hockessin Groundwater,50.0,Delaware,New Castle,NPL Site,39.78752,-75.696513,10003
American Creosote Works (Pensacola Plant),58.41,Florida,Escambia,NPL Site,30.404719,-87.236661,12033
Florida Steel Corp.,45.92,Florida,Martin,NPL Site,27.041111,-80.506111,12085
Hollingsworth Solderless Terminal,44.53,Florida,Broward,NPL Site,26.198331,-80.15221899999997,12011
Miami Drum Services,53.56,Florida,Miami-Dade,NPL Site,25.837219,-80.313061,12086
Pickettville Road Landfill,42.94,Florida,Duval,NPL Site,30.368611,-81.738889,12031
Reeves Southeastern Galvanizing Corp.,58.75,Florida,Hillsborough,NPL Site,27.9725,-82.341939,12057
Sapp Battery Salvage,47.7,Florida,Jackson,NPL Site,30.728331,-85.3925,12063
Sherwood Medical Industries,39.83,Florida,Volusia,NPL Site,29.060831,-81.265,12127
Taylor Road Landfill,51.37,Florida,Hillsborough,NPL Site,28.009719,-82.29305,12057
Tower Chemical Co.,44.03,Florida,Lake,NPL Site,28.551389,-81.684719,12069
Zellwood Ground Water Contamination,51.91,Florida,Orange,NPL Site,28.73195,-81.613331,12095
Cabot/Koppers,36.69,Florida,Alachua,NPL Site,29.675,-82.323061,12001
Peak Oil Co./Bay Drum Co.,58.15,Florida,Hillsborough,NPL Site,27.9708,-82.3404,12057
"Pepper Steel & Alloys, Inc.",31.92,Florida,Miami-Dade,NPL Site,25.873611,-80.35333100000003,12086
Sydney Mine Sludge Ponds,38.93,Florida,Hillsborough,NPL Site,27.929166,-82.209166,12057
Wingate Road Municipal Incinerator Dump,31.72,Florida,Broward,NPL Site,26.1444,-80.1847,12011
Piper Aircraft Corp./Vero Beach Water & Sewer Department,31.13,Florida,Indian River,NPL Site,27.647499,-80.415555,12061
Harris Corp. (Palm Bay Plant),35.57,Florida,Brevard,NPL Site,28.030281,-80.601389,12009
Petroleum Products Corp.,40.11,Florida,Broward,NPL Site,25.9926,-80.1696,12011
"Anodyne, Inc.",31.03,Florida,Miami-Dade,NPL Site,25.923189,-80.221531,12086
Airco Plating Co.,42.47,Florida,Miami-Dade,NPL Site,25.8152,-80.2559,12086
Madison County Sanitary Landfill,37.93,Florida,Madison,NPL Site,30.501111,-83.39375,12079
Agrico Chemical Co.,44.98,Florida,Escambia,NPL Site,30.4512,-87.2256,12033
Jacksonville Naval Air Station,32.08,Florida,Duval,NPL Site,30.22111,-81.682777,12031
Cecil Field Naval Air Station,31.99,Florida,Duval,NPL Site,30.23861,-81.902777,12031
Pensacola Naval Air Station,42.4,Florida,Escambia,NPL Site,30.357222,-87.283054,12033
Homestead Air Force Base,42.4,Florida,Miami-Dade,NPL Site,25.489444,-80.39694399999998,12086
Stauffer Chemical Co. (Tarpon Springs),50.0,Florida,Pinellas,NPL Site,28.166666,-82.775694,12103
Helena Chemical Co. (Tampa Plant),30.19,Florida,Hillsborough,NPL Site,27.963931,-82.374813,12057
Whiting Field Naval Air Station,50.0,Florida,Santa Rosa,NPL Site,30.709722,-87.02041700000002,12113
Chevron Chemical Co. (Ortho Division),50.0,Florida,Orange,NPL Site,28.578889,-81.408889,12095
Escambia Wood - Pensacola,50.0,Florida,Escambia,NPL Site,30.4553,-87.2317,12033
MRI Corp (Tampa),37.62,Florida,Hillsborough,NPL Site,27.96,-82.35583299999998,12057
Stauffer Chemical Co (Tampa),59.81,Florida,Hillsborough,NPL Site,27.963056,-82.37055600000002,12057
Tyndall Air Force Base,50.0,Florida,Bay,NPL Site,30.0875,-85.586667,12005
Florida Petroleum Reprocessors,50.0,Florida,Broward,NPL Site,26.081944,-80.215556,12011
Oak Grove Village Well,50.0,Missouri,Franklin,NPL Site,38.220972,-91.149461,29071
Pagel's Pit,45.91,Illinois,Winnebago,NPL Site,42.158331,-89.056661,17201
Newton County Mine Tailings,50.0,Missouri,Newton,NPL Site,36.9921,-94.3848,29145
Madison County Mines,58.41,Missouri,Madison,NPL Site,37.546111,-90.276111,29123
Conservation Chemical Co.,29.85,Missouri,Jackson,NPL Site,39.1279,-94.4722,29095
Annapolis Lead Mine,56.67,Missouri,Iron,NPL Site,37.355556,-90.675,29093
Washington County Lead District - Old Mines,76.81,Missouri,Washington,NPL Site,38.075278,-90.738333,29221
Washington County Lead District - Potosi,50.0,Missouri,Washington,NPL Site,37.9399,-90.7724,29221
Washington County Lead District - Richwoods,76.81,Missouri,Washington,NPL Site,38.16615,-90.814264,29221
Southwest Jefferson County Mining,70.71,Missouri,Jefferson,NPL Site,38.186794,-90.758975,29099
Vienna Wells,50.0,Missouri,Maries,NPL Site,38.189597,-91.944158,29125
Washington County Lead District - Furnace Creek,50.0,Missouri,Washington,NPL Site,37.840531,-90.799556,29221
Compass Plaza Well TCE,50.0,Missouri,Greene,NPL Site,37.109009,-93.083168,29077
Sporlan Valve Plant #1,35.15,Missouri,Franklin,NPL Site,38.5519,-91.00668,29071
"Chemfax, Inc.",38.4,Mississippi,Harrison,NPL Site,30.428888,-89.089166,28047
"American Creosote Works, Inc.",62.2,Mississippi,Winston,NPL Site,33.111111,-89.05833299999998,28159
Picayune Wood Treating,51.03,Mississippi,Pearl River,NPL Site,30.524444,-89.689722,28109
Sonford Products,31.66,Mississippi,Rankin,NPL Site,32.29251,-90.14222,28121
Kerr-McGee Chemical Corp - Columbus,52.47,Mississippi,Lowndes,NPL Site,33.509767,-88.409686,28087
Red Panther Chemical Company,39.43,Mississippi,Coahoma,NPL Site,34.187408000000005,-90.561625,28027
Southeastern Wood Preserving,48.03,Mississippi,Madison,NPL Site,32.618061,-90.018189,28089
Mississippi Phosphates Corporation,50.0,Mississippi,Jackson,NPL Site,30.372103000000006,-88.491006,28059
Rockwell International Wheel & Trim,50.0,Mississippi,Grenada,NPL Site,33.803244,-89.801661,28043
Anaconda Co. Smelter,58.71,Montana,Deer Lodge,NPL Site,46.116661,-112.915,30023
Libby Ground Water Contamination,37.67,Montana,Lincoln,NPL Site,48.38,-115.5389,30053
Milltown Reservoir Sediments,43.78,Montana,Missoula,NPL Site,46.866661,-113.8667,30063
Silver Bow Creek/Butte Area,63.76,Montana,Deer Lodge,NPL Site,46.039,-112.7948,30023
East Helena Site,61.65,Montana,Lewis and Clark,NPL Site,46.581669,-111.9183,30049
Idaho Pole Co.,38.29,Montana,Gallatin,NPL Site,45.688331,-111.0217,30031
Mouat Industries,31.66,Montana,Stillwater,NPL Site,45.635,-109.2475,30095
Montana Pole and Treating,33.03,Montana,Silver Bow,NPL Site,45.99,-112.5483,30093
Basin Mining Area,61.15,Montana,Jefferson,NPL Site,46.272778,-112.263333,30043
Upper Tenmile Creek Mining Area,50.0,Montana,Lewis and Clark,NPL Site,46.482083,-112.245139,30049
Lockwood Solvent Ground Water Plume,45.69,Montana,Yellowstone,NPL Site,45.803611,-108.455,30111
Barker Hughesville Mining District,50.0,Montana,Cascade,NPL Site,47.083333,-110.630278,30013
Carpenter Snow Creek Mining District,50.0,Montana,Cascade,NPL Site,46.961389,-110.725833,30013
Libby Asbestos,0.0,Montana,Lincoln,NPL Site,48.391528,-115.551111,30053
Flat Creek IMM,51.33,Montana,Mineral,NPL Site,47.240278,-114.852778,30061
ACM Smelter and Refinery,54.26,Montana,Cascade,NPL Site,47.528603,-111.246467,30013
Anaconda Aluminum Co Columbia Falls Reduction Plant,68.39,Montana,Flathead,NPL Site,48.387875,-114.130297,30029
Bypass 601 Ground Water Contamination,37.93,North Carolina,Cabarrus,NPL Site,35.4096,-80.6093,37025
Jadco-Hughes Facility,42.0,North Carolina,Gaston,NPL Site,35.275831,-81.041111,37071
"North Carolina State University (Lot 86, Farm Unit #1)",48.36,North Carolina,Wake,NPL Site,35.80181599999999,-78.713588,37183
Celanese Corp. (Shelby Fiber Operations),48.98,North Carolina,Cleveland,NPL Site,35.208889,-81.528339,37045
Cape Fear Wood Preserving,34.09,North Carolina,Cumberland,NPL Site,35.04945,-79.020839,37051
Aberdeen Pesticide Dumps,52.7,North Carolina,Moore,NPL Site,35.1384,-79.4472,37125
Charles Macon Lagoon & Drum Storage,47.1,North Carolina,Richmond,NPL Site,34.8925,-79.8375,37153
Carolina Transformer Co.,33.76,North Carolina,Cumberland,NPL Site,35.063331,-78.845,37051
"Benfield Industries, Inc.",31.67,North Carolina,Haywood,NPL Site,35.477781,-83.00416899999998,37087
Potter's Septic Tank Service Pits,29.14,North Carolina,Brunswick,NPL Site,34.2846,-78.1578,37019
Camp Lejeune Military Reservation,33.13,North Carolina,Onslow,NPL Site,34.717781,-77.342919,37133
"Koppers Co., Inc. (Morrisville Plant)",41.89,North Carolina,Wake,NPL Site,35.8463,-78.8406,37183
ABC One Hour Cleaners,29.11,North Carolina,Onslow,NPL Site,34.7414,-77.3666,37133
Geigy Chemical Corp. (Aberdeen Plant),33.02,North Carolina,Moore,NPL Site,35.126111,-79.406669,37125
"FCX, Inc. (Statesville Plant)",37.93,North Carolina,Iredell,NPL Site,35.7865,-80.9163,37097
"FCX, Inc. (Washington Plant)",40.39,North Carolina,Beaufort,NPL Site,35.559581,-77.07445,37013
JFD Electronics/Channel Master,39.03,North Carolina,Granville,NPL Site,36.299719,-78.60638900000002,37077
"Chemtronics, Inc.",30.16,North Carolina,Buncombe,NPL Site,35.625,-82.434719,37021
General Electric Co/Shepherd Farm,70.71,North Carolina,Henderson,NPL Site,35.272222,-82.411111,37089
Cherry Point Marine Corps Air Station,70.71,North Carolina,Craven,NPL Site,34.9,-76.8917,37049
Davis Park Road TCE,33.5,North Carolina,Gaston,NPL Site,35.231667,-81.218889,37071
North Belmont PCE,50.0,North Carolina,Gaston,NPL Site,35.273472,-81.05125,37071
Barber Orchard,70.71,North Carolina,Haywood,NPL Site,35.445833,-83.063889,37087
Ward Transformer,50.0,North Carolina,Wake,NPL Site,35.901944,-78.773611,37183
Ram Leather Care,40.43,North Carolina,Mecklenburg,NPL Site,35.228056,-80.606806,37119
National Starch & Chemical Corp.,46.51,North Carolina,Rowan,NPL Site,35.6322,-80.5412,37159
Sigmon's Septic Tank Service,30.03,North Carolina,Iredell,NPL Site,35.713611,-80.974583,37097
Blue Ridge Plating Company,38.67,North Carolina,Buncombe,NPL Site,35.46237199999999,-82.528358,37021
Aberdeen Contaminated Ground Water,50.0,North Carolina,Moore,NPL Site,35.1224,-79.4025,37125
GMH Electronics,50.0,North Carolina,Person,NPL Site,36.416722,-78.941625,37145
Ore Knob Mine,50.0,North Carolina,Ashe,NPL Site,36.410011,-81.324606,37009
Kerr-McGee Chemical Corp - Navassa,50.0,North Carolina,Brunswick,NPL Site,34.247222,-77.99902800000002,37019
Wright Chemical Corporation,48.03,North Carolina,Columbus,NPL Site,34.3284,-78.2051,37047
Horton Iron and Metal,48.03,North Carolina,New Hanover,NPL Site,34.26665,-77.954083,37129
"CTS of Asheville, Inc.",38.4,North Carolina,Buncombe,NPL Site,35.493075,-82.505953,37021
Holcomb Creosote Co,48.0,North Carolina,Yadkin,NPL Site,36.157875,-80.675236,37197
Cristex Drum,48.0,North Carolina,Granville,NPL Site,36.2972,-78.6067,37077
Hemphill Road TCE,50.0,North Carolina,Gaston,NPL Site,35.197933,-81.189852,37071
Cornhusker Army Ammunition Plant,51.13,Nebraska,Hall,NPL Site,40.923331,-98.4925,31079
Hastings Ground Water Contamination,42.24,Nebraska,Adams,NPL Site,40.583331,-98.383331,31001
Nebraska Ordnance Plant (Former),31.94,Nebraska,Saunders,NPL Site,41.176669,-96.453331,31155
10th Street Site,28.9,Nebraska,Platte,NPL Site,41.426561,-97.362219,31141
Cleburn Street Well,50.0,Nebraska,Hall,NPL Site,40.925139,-98.347778,31079
Sherwood Medical Co.,50.0,Nebraska,Madison,NPL Site,41.993611,-97.421389,31119
Bruno Co-op Association/Associated Properties,50.0,Nebraska,Butler,NPL Site,41.284722,-96.959722,31023
Ogallala Ground Water Contamination,50.0,Nebraska,Keith,NPL Site,41.123889,-101.736111,31101
Omaha Lead,50.0,Nebraska,Douglas,NPL Site,41.267778,-95.929722,31055
"American Anodco, Inc.",57.99,Michigan,Ionia,NPL Site,42.9875,-85.03,26067
J & L Landfill,31.65,Michigan,Oakland,NPL Site,42.6556,-83.0959,26125
Joliet Army Ammunition Plant (Manufacturing Area),32.08,Illinois,Will,NPL Site,41.3762,-88.1563,17197
"Barrels, Inc.",42.24,Michigan,Ingham,NPL Site,42.749031,-84.54333100000002,26065
"Parsons Chemical Works, Inc.",31.32,Michigan,Eaton,NPL Site,42.7547,-84.7677,26045
"Bofors Nobel, Inc.",53.42,Michigan,Muskegon,NPL Site,43.209364,-86.11746,26121
Kaydon Corp.,34.21,Michigan,Muskegon,NPL Site,43.2007,-86.2908,26121
Solitron Microwave,50.0,Florida,Martin,NPL Site,27.136667,-80.199167,12085
Adam's Plating,29.64,Michigan,Ingham,NPL Site,42.739439,-84.587781,26065
"Allied Paper, Inc./Portage Creek/Kalamazoo River",36.41,Michigan,Allegan,NPL Site,42.303333,-85.576083,26005
Hi-Mill Manufacturing Co.,49.54,Michigan,Oakland,NPL Site,42.649831,-83.593089,26125
Bendix Corp./Allied Automotive,37.27,Michigan,Berrien,NPL Site,42.04945,-86.51195,26021
"State Disposal Landfill, Inc.",42.24,Michigan,Kent,NPL Site,43.013397,-85.590506,26081
Muskegon Chemical Co.,34.19,Michigan,Muskegon,NPL Site,43.3891,-86.334,26121
Peerless Plating Co.,43.94,Michigan,Muskegon,NPL Site,43.2056,-86.2237,26121
Albion-Sheridan Township Landfill,33.79,Michigan,Calhoun,NPL Site,42.24955,-84.7195,26025
Aircraft Components (D & L Sales),0.0,Michigan,Berrien,NPL Site,42.126944,-86.454444,26021
Kysor Industrial Corp.,33.94,Michigan,Wexford,NPL Site,44.2568,-85.4226,26165
Gratiot County Golf Course,29.54,Michigan,Gratiot,NPL Site,43.415842,-84.62324699999998,26057
Ten-Mile Drain,48.88,Michigan,Macomb,NPL Site,42.486944,-82.899167,26099
DSC McLouth Steel Gibraltar Plant,50.0,Michigan,Wayne,NPL Site,42.103075,-83.200292,26163
McLouth Steel Corp,50.0,Michigan,Wayne,NPL Site,42.160597,-83.170906,26163
Burlington Northern (Brainerd/Baxter Plant),46.77,Minnesota,Crow Wing,NPL Site,46.3532,-94.2282,27035
FMC Corp. (Fridley Plant),65.5,Minnesota,Anoka,NPL Site,45.0565,-93.2762,27003
Koppers Coke,55.05,Minnesota,Ramsey,NPL Site,44.972219,-93.152781,27123
Lehillier/Mankato Site,42.49,Minnesota,Blue Earth,NPL Site,44.153331,-94.038331,27013
New Brighton/Arden Hills/TCAAP (USARMY),59.16,Minnesota,Ramsey,NPL Site,45.079169,-93.1975,27123
Oakdale Dump,55.71,Minnesota,Washington,NPL Site,45.0,-92.966669,27163
Reilly Tar & Chemical Corp. (St. Louis Park Plant),0.0,Minnesota,Hennepin,NPL Site,44.941669,-93.372219,27053
South Andover Site,35.41,Minnesota,Anoka,NPL Site,45.2179,-93.318,27003
Arrowhead Refinery Co.,43.75,Minnesota,St Louis,NPL Site,46.8377,-92.2398,27137
General Mills/Henkel Corp.,36.28,Minnesota,Hennepin,NPL Site,44.99,-93.222781,27053
Joslyn Manufacturing & Supply Co.,44.3,Minnesota,Hennepin,NPL Site,45.045,-93.333339,27053
MacGillis & Gibbs/Bell Lumber & Pole Co.,48.33,Minnesota,Ramsey,NPL Site,45.055,-93.194731,27123
Perham Arsenic Site,37.98,Minnesota,Otter Tail,NPL Site,46.587781,-95.571661,27111
St. Regis Paper Co.,52.88,Minnesota,Cass,NPL Site,47.375561,-94.60555,27021
St. Louis River Site,32.08,Minnesota,St Louis,NPL Site,46.677781,-92.212219,27137
Kurt Manufacturing Co.,31.41,Minnesota,Anoka,NPL Site,45.064411,-93.268361,27003
Long Prairie Ground Water Contamination,31.94,Minnesota,Todd,NPL Site,45.978531,-94.856639,27153
Naval Industrial Reserve Ordnance Plant,30.83,Minnesota,Anoka,NPL Site,45.058831,-93.273669,27003
Freeway Sanitary Landfill,45.91,Minnesota,Dakota,NPL Site,44.795,-93.293331,27037
Waite Park Wells,31.94,Minnesota,Stearns,NPL Site,45.561669,-94.215,27145
Ritari Post & Pole,29.81,Minnesota,Wadena,NPL Site,46.6608,-95.0298,27159
Baytown Township Ground Water Plume,35.62,Minnesota,Washington,NPL Site,45.0,-92.833333,27163
Fridley Commons Park Well Field,50.0,Minnesota,Anoka,NPL Site,45.080556,-93.255556,27003
South Minneapolis Residential Soil Contamination,44.58,Minnesota,Hennepin,NPL Site,44.9528,-93.2427,27053
Spring Park Municipal Well Field,50.0,Minnesota,Hennepin,NPL Site,44.935944,-93.633306,27053
Minker/Stout/Romaine Creek,36.78,Missouri,Jefferson,NPL Site,38.44,-90.48,29099
Ellisville Site,0.0,Missouri,St Louis,NPL Site,38.603331,-90.618331,29189
Fulbright Landfill,40.6,Missouri,Greene,NPL Site,37.273056,-93.3125,29077
Syntex Facility,43.78,Missouri,Lawrence,NPL Site,36.965,-93.798331,29109
Lee Chemical,46.81,Missouri,Clay,NPL Site,39.201111,-94.3925,29047
"Solid State Circuits, Inc.",37.93,Missouri,Greene,NPL Site,37.118061,-93.480281,29077
Bee Cee Manufacturing Co.,28.59,Missouri,Dunklin,NPL Site,36.603331,-89.98,29069
Quality Plating,40.7,Missouri,Scott,NPL Site,36.96305,-89.55721899999998,29201
Weldon Spring Former Army Ordnance Works,30.26,Missouri,St Charles,NPL Site,38.696389,-90.729161,29183
Lake City Army Ammunition Plant (Northwest Lagoon),33.62,Missouri,Jackson,NPL Site,39.103,-94.2783,29095
Valley Park TCE,35.57,Missouri,St Louis,NPL Site,38.552781,-90.466669,29189
Oronogo-Duenweg Mining Belt,46.2,Missouri,Jasper,NPL Site,37.101111,-94.420561,29097
Missouri Electric Works,31.2,Missouri,Cape Girardeau,NPL Site,37.28625,-89.55505600000002,29031
Weldon Spring Quarry/Plant/Pits (USDOE/Army),58.6,Missouri,St Charles,NPL Site,38.696944,-90.724999,29183
St. Louis Airport/Hazelwood Interim Storage/Futura Coatings Co.,38.31,Missouri,St Louis,NPL Site,38.759719,-90.360419,29189
Westlake Landfill,29.85,Missouri,St Louis,NPL Site,38.77,-90.445269,29189
Big River Mine Tailings/St. Joe Minerals Corp.,84.91,Missouri,St Francois,NPL Site,37.886389,-90.55,29187
Newton County Wells,50.0,Missouri,Newton,NPL Site,37.044722,-94.473056,29145
Pools Prairie,50.0,Missouri,Newton,NPL Site,36.803056,-94.390278,29145
Armour Road,50.0,Missouri,Clay,NPL Site,39.145,-94.556111,29047
Riverfront,50.0,Missouri,Franklin,NPL Site,38.613889,-91.214722,29071
"Trans Circuits, Inc.",50.0,Florida,Palm Beach,NPL Site,26.795278000000003,-80.07388900000002,12099
Kane & Lombard Street Drums,30.15,Maryland,Baltimore,NPL Site,39.2956,-76.5419,24005
Landia Chemical Company,50.0,Florida,Polk,NPL Site,28.039444,-81.979167,12105
Alaric Area Ground Water Plume,41.91,Florida,Hillsborough,NPL Site,27.964083,-82.375139,12057
Aberdeen Proving Ground (Michaelsville Landfill),31.09,Maryland,Baltimore,NPL Site,39.4606,-76.1414,24005
Aberdeen Proving Ground (Edgewood Area),53.57,Maryland,Baltimore,NPL Site,39.395404,-76.30773,24005
Woodlawn County Landfill,48.13,Maryland,Cecil,NPL Site,39.641669,-76.09,24015
Bush Valley Landfill,40.3,Maryland,Harford,NPL Site,39.467219,-76.26195,24025
"Spectron, Inc.",51.42,Maryland,Cecil,NPL Site,39.691249,-75.877778,24015
"Ordnance Products, Inc.",32.15,Maryland,Cecil,NPL Site,39.630833,-75.923889,24015
H.O.D. Landfill,34.68,Illinois,Lake,NPL Site,42.4753,-88.0819,17097
Indian Head Naval Surface Warfare Center,50.0,Maryland,Charles,NPL Site,38.591389,-77.174306,24017
Central Chemical (Hagerstown),50.0,Maryland,Washington,NPL Site,39.656667,-77.723611,24043
Fort George G. Meade,51.44,Maryland,Anne Arundel,NPL Site,39.083333,-76.715278,24003
Curtis Bay Coast Guard Yard,50.0,Maryland,Anne Arundel,NPL Site,39.2,-76.572694,24003
Fort Detrick Area B Ground Water,49.52,Maryland,Frederick,NPL Site,39.434442,-77.44676899999997,24021
Dwyer Property Ground Water Plume,50.0,Maryland,Cecil,NPL Site,39.612007,-75.844474,24015
Sauer Dump,50.0,Maryland,Baltimore,NPL Site,39.270267,-76.45271,24005
McKin Co.,60.97,Maine,Cumberland,NPL Site,43.8841,-70.2942,23005
Saco Municipal Landfill,29.49,Maine,York,NPL Site,43.5302,-70.4815,23031
Winthrop Landfill,35.62,Maine,Kennebec,NPL Site,44.275831,-69.988331,23011
Brunswick Naval Air Station,43.38,Maine,Cumberland,NPL Site,43.90634,-69.933986,23005
Loring Air Force Base,34.49,Maine,Aroostook,NPL Site,46.944444,-67.883888,23003
Portsmouth Naval Shipyard,50.0,Maine,York,NPL Site,43.084167,-70.74166600000002,23031
West Site/Hows Corners,50.0,Maine,Penobscot,NPL Site,44.740278,-69.182222,23019
Eastern Surplus,50.0,Maine,Washington,NPL Site,45.03888900000001,-67.358333,23029
Eastland Woolen Mill,70.71,Maine,Penobscot,NPL Site,44.921667,-69.261111,23019
Callahan Mine,50.0,Maine,Hancock,NPL Site,44.351639,-68.810139,23009
Leeds Metal,32.25,Maine,Androscoggin,NPL Site,44.237083,-70.08025,23001
Keddy Mill,50.0,Maine,Cumberland,NPL Site,43.734953,-70.424514,23005
"Auto Ion Chemicals, Inc.",32.07,Michigan,Kalamazoo,NPL Site,42.293889,-85.567219,26077
Butterworth #2 Landfill,50.31,Michigan,Kent,NPL Site,42.952219,-85.700281,26081
"Cannelton Industries, Inc.",30.16,Michigan,Chippewa,NPL Site,46.488889,-84.393061,26033
Chem Central,38.2,Michigan,Kent,NPL Site,42.91,-85.674161,26081
Clare Water Supply,38.43,Michigan,Clare,NPL Site,43.815,-84.7625,26035
Electrovoice,35.36,Michigan,Berrien,NPL Site,41.8206,-86.3545,26021
Forest Waste Products,38.64,Michigan,Genesee,NPL Site,43.198331,-83.545831,26049
G&H Landfill,49.09,Michigan,Macomb,NPL Site,42.664719,-83.07776899999998,26099
Grand Traverse Overall Supply Co.,35.53,Michigan,Leelanau,NPL Site,44.7944,-85.6382,26089
Gratiot County Landfill,0.0,Michigan,Gratiot,NPL Site,43.395,-84.595281,26057
Hedblum Industries,37.29,Michigan,Iosco,NPL Site,44.4113,-83.3469,26069
Ionia City Landfill,31.31,Michigan,Ionia,NPL Site,42.976669,-85.046111,26067
K&L Avenue Landfill,38.1,Michigan,Kalamazoo,NPL Site,42.283331,-85.718889,26077
Kentwood Landfill,35.39,Michigan,Kent,NPL Site,42.8738,-85.5906,26081
"Liquid Disposal, Inc.",63.28,Michigan,Macomb,NPL Site,42.652781,-83.073611,26099
McGraw Edison Corp.,33.42,Michigan,Calhoun,NPL Site,42.252219,-84.73306099999998,26025
Northernaire Plating,57.93,Michigan,Wexford,NPL Site,44.265,-85.41,26165
"Organic Chemicals, Inc.",32.93,Michigan,Kent,NPL Site,42.9178,-85.7475,26081
Ott/Story/Cordova Chemical Co.,53.41,Michigan,Muskegon,NPL Site,43.303331,-86.25666899999997,26121
Packaging Corp. of America,51.91,Michigan,Manistee,NPL Site,44.22638900000001,-86.273331,26101
Petoskey Municipal Well Field,42.68,Michigan,Emmet,NPL Site,45.37600000000001,-84.964,26047
Rasmussen's Dump,31.8,Michigan,Livingston,NPL Site,42.4544,-83.7693,26093
Rose Township Dump,50.92,Michigan,Oakland,NPL Site,42.720831,-83.631939,26125
SCA Independent Landfill,34.75,Michigan,Muskegon,NPL Site,43.201111,-86.1425,26121
Shiawassee River,31.01,Michigan,Livingston,NPL Site,42.622781,-83.963611,26093
Southwest Ottawa County Landfill,39.66,Michigan,Ottawa,NPL Site,42.820419,-86.18521899999998,26139
Sparta Landfill,32.0,Michigan,Kent,NPL Site,43.1525,-85.68195,26081
Spartan Chemical Co.,41.05,Michigan,Kent,NPL Site,42.915831,-85.72778100000002,26081
Springfield Township Dump,51.97,Michigan,Oakland,NPL Site,42.7044,-83.5419,26125
Tar Lake,48.55,Michigan,Antrim,NPL Site,44.8866,-85.073,26009
U.S. Aviex,33.66,Michigan,Cass,NPL Site,41.8309,-86.1968,26027
Velsicol Chemical Corp.(Michigan),52.29,Michigan,Gratiot,NPL Site,43.410561,-84.618611,26057
Verona Well Field,46.86,Michigan,Calhoun,NPL Site,42.341669,-85.143331,26025
Wash King Laundry,40.03,Michigan,Lake,NPL Site,43.8532,-85.853,26085
Metamora Landfill,35.51,Michigan,Lapeer,NPL Site,42.94695,-83.274439,26087
Sturgis Municipal Wells,42.24,Michigan,St Joseph,NPL Site,41.7988,-85.4256,26149
"Thermo-Chem, Inc.",53.36,Michigan,Muskegon,NPL Site,43.210831,-86.136669,26121
Torch Lake,46.72,Michigan,Houghton,NPL Site,47.169719,-88.39778100000002,26061
North Bronson Industrial Area,33.93,Michigan,Branch,NPL Site,41.880281,-85.193339,26023
Michigan Disposal Service (Cork Street Landfill),37.93,Michigan,Kalamazoo,NPL Site,42.2545,-85.5433,26077
"Motor Wheel, Inc.",48.91,Michigan,Ingham,NPL Site,42.760831,-84.535,26065
South Macomb Disposal Authority (Landfills #9 and #9A),33.67,Michigan,Macomb,NPL Site,42.682081,-82.907389,26099
"Roto-Finish Co., Inc.",40.7,Michigan,Kalamazoo,NPL Site,42.2292,-85.5443,26077
"H. Brown Co., Inc.",39.88,Michigan,Kent,NPL Site,43.003331,-85.67833900000002,26081
Rockwell International Corp. (Allegan Plant),52.15,Michigan,Allegan,NPL Site,42.536669,-85.85,26005
Lindsay Manufacturing Co.,47.91,Nebraska,Platte,NPL Site,41.701669,-97.69,31141
Fort Wainwright,42.4,Alaska,Fairbanks North Star,NPL Site,64.82300000000001,-147.6106,2090
Parkview Well,50.0,Nebraska,Hall,NPL Site,40.895833,-98.365,31079
Garvey Elevator,50.0,Nebraska,Adams,NPL Site,40.563611,-98.415556,31001
West Highway 6 & Highway 281,50.0,Nebraska,Adams,NPL Site,40.5712,-98.4095,31001
PCE Southeast Contamination ,43.33,Nebraska,York,NPL Site,40.859594,-97.580614,31185
PCE/TCE Northeast Contamination,50.0,Nebraska,York,NPL Site,40.888636,-97.600361,31185
Iowa-Nebraska Light & Power Co,40.8,Nebraska,Madison,NPL Site,42.0323,-97.417028,31119
Fort Riley,33.79,Kansas,Geary,NPL Site,39.166669,-96.75,20061
Old HWY 275 and N 288th Street,50.0,Nebraska,Douglas,NPL Site,41.329092,-96.367333,31055
Auburn Road Landfill,36.3,New Hampshire,Rockingham,NPL Site,42.9302,-71.3529,33015
Dover Municipal Landfill,36.98,New Hampshire,Strafford,NPL Site,43.2125,-70.953,33017
Keefe Environmental Services,65.19,New Hampshire,Rockingham,NPL Site,43.024169,-71.033331,33015
Ottati & Goss/Kingston Steel Drum,53.41,New Hampshire,Rockingham,NPL Site,42.897219,-71.080561,33015
Somersworth Sanitary Landfill,65.56,New Hampshire,Strafford,NPL Site,43.2489,-70.8845,33017
"Tri-County Landfill Co./Waste Management of Illinois, Inc.",42.76,Illinois,Kane,NPL Site,41.9832,-88.2712,17089
Sylvester,0.0,New Hampshire,Hillsborough,NPL Site,42.7197,-71.523111,33011
Tinkham Garage,43.24,New Hampshire,Rockingham,NPL Site,42.860831,-71.351111,33015
Kearsarge Metallurgical Corp.,38.45,New Hampshire,Carroll,NPL Site,43.9721,-71.1293,33003
Savage Municipal Water Supply,37.52,New Hampshire,Hillsborough,NPL Site,42.8418,-71.6884,33011
South Municipal Water Supply Well,35.64,New Hampshire,Hillsborough,NPL Site,42.8489,-71.9468,33011
Coakley Landfill,29.16,New Hampshire,Rockingham,NPL Site,43.001111,-70.817219,33015
Tibbetts Road,41.09,New Hampshire,Strafford,NPL Site,43.18,-71.0347,33017
Mottolo Pig Farm,40.7,New Hampshire,Rockingham,NPL Site,42.989581,-71.17318900000002,33015
Fletcher's Paint Works & Storage,35.39,New Hampshire,Hillsborough,NPL Site,42.8358,-71.6554,33011
Pease Air Force Base,39.42,New Hampshire,Rockingham,NPL Site,43.080169,-70.82125,33015
New Hampshire Plating Co.,50.0,New Hampshire,Hillsborough,NPL Site,42.855833,-71.488888,33011
Beede Waste Oil,70.71,New Hampshire,Rockingham,NPL Site,42.855075,-71.105889,33015
Troy Mills Landfill,50.0,New Hampshire,Cheshire,NPL Site,42.802583,-72.186944,33005
Chlor-Alkali Facility (Former),30.54,New Hampshire,Coos,NPL Site,44.479194,-71.167194,33007
Collins & Aikman Plant (Former),50.0,New Hampshire,Strafford,NPL Site,43.372,-71.05875,33017
A. O. Polymer,28.91,New Jersey,Sussex,NPL Site,41.04805,-74.63,34037
American Cyanamid Co.,50.28,New Jersey,Somerset,NPL Site,40.555561,-74.55945,34035
Bog Creek Farm,43.23,New Jersey,Monmouth,NPL Site,40.150831,-74.161111,34025
Brick Township Landfill,58.13,New Jersey,Ocean,NPL Site,40.1098,-74.1311,34029
Bridgeport Rental & Oil Services,60.73,New Jersey,Gloucester,NPL Site,39.801669,-75.32166099999998,34015
Burnt Fly Bog,59.16,New Jersey,Middlesex,NPL Site,40.375,-74.279169,34023
Caldwell Trucking Co.,58.3,New Jersey,Essex,NPL Site,40.876389,-74.271389,34013
Chemical Control,47.13,New Jersey,Union,NPL Site,40.6432,-74.1935,34039
"Chemsol, Inc.",42.69,New Jersey,Middlesex,NPL Site,40.5625,-74.443339,34023
Combe Fill South Landfill,45.22,New Jersey,Morris,NPL Site,40.771669,-74.738331,34027
CPS/Madison Industries,69.73,New Jersey,Middlesex,NPL Site,40.43443900000001,-74.32776899999998,34023
D'Imperio Property,55.79,New Jersey,Atlantic,NPL Site,39.454439,-74.658889,34001
Dover Municipal Well 4,28.9,New Jersey,Morris,NPL Site,40.8858,-74.5423,34027
Ellis Property,34.62,New Jersey,Burlington,NPL Site,39.905,-74.864719,34005
Evor Phillips Leasing,36.64,New Jersey,Middlesex,NPL Site,40.4375,-74.325,34023
Fair Lawn Well Field,42.49,New Jersey,Bergen,NPL Site,40.9375,-74.131939,34003
GEMS Landfill,68.53,New Jersey,Camden,NPL Site,39.77945,-75.018889,34007
Goose Farm,47.71,New Jersey,Ocean,NPL Site,40.09555,-74.4975,34029
"Hercules, Inc. (Gibbstown Plant)",40.36,New Jersey,Gloucester,NPL Site,39.838889,-75.277781,34015
"Imperial Oil Co., Inc./Champion Chemicals",33.87,New Jersey,Monmouth,NPL Site,40.383889,-74.24583100000002,34025
JIS Landfill,45.14,New Jersey,Middlesex,NPL Site,40.365831,-74.465281,34023
Kin-Buc Landfill,50.64,New Jersey,Middlesex,NPL Site,40.4891,-74.3785,34023
King of Prussia,47.19,New Jersey,Camden,NPL Site,39.62695,-74.889439,34007
Helen Kramer Landfill,72.66,New Jersey,Gloucester,NPL Site,39.7801,-75.2003,34015
Lang Property,48.89,New Jersey,Burlington,NPL Site,39.929161,-74.49445,34005
Lipari Landfill,75.6,New Jersey,Gloucester,NPL Site,39.720281,-75.14193900000002,34015
Lone Pine Landfill,66.33,New Jersey,Monmouth,NPL Site,40.202781,-74.333339,34025
Maywood Chemical Co.,51.19,New Jersey,Bergen,NPL Site,40.8964,-74.0693,34003
Metaltec/Aerosystems,48.95,New Jersey,Sussex,NPL Site,41.109719,-74.599719,34037
Montgomery Township Housing Development,37.93,New Jersey,Somerset,NPL Site,40.408331,-74.64416899999998,34035
Myers Property,33.83,New Jersey,Hunterdon,NPL Site,40.595,-74.9404,34019
NL Industries,52.96,New Jersey,Salem,NPL Site,39.758061,-75.424719,34033
PJP Landfill,28.73,New Jersey,Hudson,NPL Site,40.734719,-74.085561,34017
Price Landfill,0.0,New Jersey,Atlantic,NPL Site,39.415281,-74.52695,34001
Reich Farms,53.48,New Jersey,Ocean,NPL Site,40.0106,-74.2149,34029
Rockaway Borough Well Field,42.34,New Jersey,Morris,NPL Site,40.905831,-74.515561,34027
Rockaway Township Wells,28.9,New Jersey,Morris,NPL Site,40.913331,-74.499169,34027
Rocky Hill Municipal Well,37.93,New Jersey,Somerset,NPL Site,40.401669,-74.6475,34035
Roebling Steel Co.,41.02,New Jersey,Burlington,NPL Site,40.120831,-74.770839,34005
Scientific Chemical Processing,55.97,New Jersey,Bergen,NPL Site,40.82454,-74.074329,34003
Sharkey Landfill,48.85,New Jersey,Morris,NPL Site,40.8501,-74.3454,34027
Swope Oil & Chemical Co.,35.68,New Jersey,Camden,NPL Site,39.9886,-75.0347,34007
Syncon Resins,43.43,New Jersey,Hudson,NPL Site,40.737781,-74.114719,34017
Ciba-Geigy Corp.,50.33,New Jersey,Ocean,NPL Site,39.9867,-74.2363,34029
Universal Oil Products (Chemical Division),54.63,New Jersey,Bergen,NPL Site,40.83,-74.088889,34003
U.S. Radium Corp.,37.79,New Jersey,Essex,NPL Site,40.781389,-74.228611,34013
Williams Property,40.45,New Jersey,Cape May,NPL Site,39.1173,-74.8004,34009
Woodland Route 72 Dump,31.17,New Jersey,Burlington,NPL Site,39.821669,-74.447781,34005
"Chemical Leaman Tank Lines, Inc.",47.53,New Jersey,Gloucester,NPL Site,39.798331,-75.33278100000003,34015
De Rewal Chemical Co.,35.72,New Jersey,Hunterdon,NPL Site,40.5162,-75.0614,34019
Diamond Alkali Co.,35.4,New Jersey,Essex,NPL Site,40.739719,-74.136111,34013
Ewan Property,50.19,New Jersey,Burlington,NPL Site,39.802781,-74.71943900000002,34005
Elmendorf Air Force Base,45.91,Alaska,Anchorage,NPL Site,61.254169,-149.7917,2020
"Southern Solvents, Inc.",50.0,Florida,Hillsborough,NPL Site,28.040556,-82.510278,12057
Parsons Casket Hardware Co.,55.58,Illinois,Boone,NPL Site,42.2692,-88.836,17007
57th and North Broadway Streets Site,50.0,Kansas,Sedgwick,NPL Site,37.775,-97.316667,20173
Eielson Air Force Base,48.14,Alaska,Fairbanks North Star,NPL Site,64.67145,-147.0492,2090
Adak Naval Air Station,51.37,Alaska,Aleutians West,NPL Site,51.8775,-176.6525,2016
Fort Richardson (USARMY),50.0,Alaska,Anchorage,NPL Site,61.25833299999999,-149.7,2020
Triana/Tennessee River,61.42,Alabama,Limestone,NPL Site,34.508888,-86.638194,1083
Ciba-Geigy Corp. (McIntosh Plant),53.42,Alabama,Washington,NPL Site,31.279,-87.9955,1129
Olin Corp. (McIntosh Plant),39.71,Alabama,Washington,NPL Site,31.263889,-87.99445,1129
Stauffer Chemical Co. (LeMoyne Plant),32.34,Alabama,Mobile,NPL Site,30.969439,-88.0175,1097
Stauffer Chemical Co. (Cold Creek Plant),46.77,Alabama,Mobile,NPL Site,30.975,-88.021389,1097
Alabama Army Ammunition Plant,36.83,Alabama,Talladega,NPL Site,33.3381,-86.3268,1121
Interstate Lead Co. (ILCO),42.86,Alabama,Jefferson,NPL Site,33.688889,-86.633333,1073
T.H. Agriculture & Nutrition Co. (Montgomery Plant),44.46,Alabama,Montgomery,NPL Site,32.3761,-86.3791,1101
Redstone Arsenal (USARMY/NASA),50.0,Alabama,Madison,NPL Site,34.646944,-86.673055,1089
American Brass,55.61,Alabama,Henry,NPL Site,31.325,-85.404167,1067
"Alabama Plating Company, Inc.",30.2,Alabama,Shelby,NPL Site,33.399722,-86.405,1117
Anniston Army Depot (Southeast Industrial Area),51.91,Alabama,Calhoun,NPL Site,33.659439,-85.96943900000002,1015
Mid-South Wood Products,45.87,Arkansas,Polk,NPL Site,34.5697,-94.2566,5113
Midland Products,30.77,Arkansas,Yell,NPL Site,35.025,-93.203889,5149
"Vertac, Inc.",65.46,Arkansas,Pulaski,NPL Site,34.878,-92.1312,5119
"Arkwood, Inc.",28.95,Arkansas,Boone,NPL Site,36.445,-93.1964,5009
"Popile, Inc.",50.03,Arkansas,Union,NPL Site,33.1825,-92.673333,5139
Mountain Pine Pressure Treating,41.93,Arkansas,Yell,NPL Site,34.984167,-93.302222,5149
Ouachita Nevada Wood Treater,50.0,Arkansas,Ouachita,NPL Site,33.759453,-93.104258,5103
Cedar Chemical Corporation,0.0,Arkansas,Phillips,NPL Site,34.5206,-90.6517,5107
MacMillan Ring Free Oil,50.0,Arkansas,Union,NPL Site,33.30836,-92.65688,5139
Indian Bend Wash Area,42.24,Arizona,Maricopa,NPL Site,33.466669,-111.9083,4013
Phoenix-Goodyear Airport Area,45.91,Arizona,Maricopa,NPL Site,33.429719,-112.3653,4013
Tucson International Airport Area,57.8,Arizona,Pima,NPL Site,32.105561,-110.9333,4019
Hassayampa Landfill,42.79,Arizona,Maricopa,NPL Site,33.368331,-112.7483,4013
Yuma Marine Corps Air Station,32.24,Arizona,Yuma,NPL Site,32.654581,-114.5888,4027
Williams Air Force Base,37.93,Arizona,Maricopa,NPL Site,33.30695,-111.6519,4013
"Motorola, Inc. (52nd Street Plant)",40.83,Arizona,Maricopa,NPL Site,33.461669,-111.9708,4013
Apache Powder Co.,39.09,Arizona,Cochise,NPL Site,31.88,-110.24,4003
Iron King Mine - Humboldt Smelter,52.69,Arizona,Yavapai,NPL Site,34.5,-112.25,4025
Aerojet General Corp.,54.63,California,Sacramento,NPL Site,38.608331,-121.2,6067
Coast Wood Preserving,44.73,California,Mendocino,NPL Site,39.1125,-123.193,6045
Iron Mountain Mine,56.16,California,Shasta,NPL Site,40.671669,-122.5278,6089
McColl,41.77,California,Orange,NPL Site,33.8953,-117.9712,6059
"Purity Oil Sales, Inc.",43.27,California,Fresno,NPL Site,36.6874,-119.7467,6019
Selma Treating Co.,48.83,California,Fresno,NPL Site,36.556669,-119.6017,6019
Stringfellow,0.0,California,Riverside,NPL Site,34.023056,-117.45833,6065
Westinghouse Electric Corp. (Sunnyvale Plant),39.93,California,Santa Clara,NPL Site,37.3787,-122.0225,6085
"Valley Wood Preserving, Inc.",32.01,California,Stanislaus,NPL Site,37.4727,-120.8239,6099
"Koppers Co., Inc. (Oroville Plant)",33.73,California,Butte,NPL Site,39.470831,-121.5643,6007
McClellan Air Force Base (Ground Water Contamination),57.93,California,Sacramento,NPL Site,38.66,-121.3994,6067
Atlas Asbestos Mine,45.55,California,Fresno,NPL Site,36.321669,-120.5867,6019
San Gabriel Valley (Area 1),42.24,California,Los Angeles,NPL Site,34.125,-118.0,6037
San Gabriel Valley (Area 2),42.24,California,Los Angeles,NPL Site,34.073611,-117.9361,6037
San Gabriel Valley (Area 3),28.9,California,Los Angeles,NPL Site,34.1,-118.125,6037
San Gabriel Valley (Area 4),28.9,California,Los Angeles,NPL Site,34.016669,-117.9583,6037
South Bay Asbestos Area,44.68,California,Santa Clara,NPL Site,37.429861,-121.9811,6085
"Operating Industries, Inc., Landfill",57.22,California,Los Angeles,NPL Site,34.033333,-118.105556,6037
San Fernando Valley (Area 1),42.24,California,Los Angeles,NPL Site,34.19,-118.3514,6037
San Fernando Valley (Area 2),42.24,California,Los Angeles,NPL Site,34.163139,-118.286,6037
San Fernando Valley (Area 4),35.57,California,Los Angeles,NPL Site,34.112081,-118.2539,6037
Montrose Chemical Corp.,32.1,California,Los Angeles,NPL Site,33.848331,-118.2983,6037
Sharpe Army Depot,42.24,California,San Joaquin,NPL Site,37.829169,-121.2672,6077
Norton Air Force Base,39.65,California,San Bernardino,NPL Site,34.098061,-117.2372,6071
Castle Air Force Base (6 Areas),37.93,California,Merced,NPL Site,37.367361,-120.5636,6047
Mather Air Force Base,28.9,California,Sacramento,NPL Site,38.55695,-121.2972,6067
Lawrence Livermore Laboratory (USDOE),42.24,California,Alameda,NPL Site,37.688061,-121.7047,6001
Beckman Instruments (Porterville Plant),34.21,California,Tulare,NPL Site,36.049,-119.0201,6107
"Advanced Micro Devices, Inc.",37.93,California,Santa Clara,NPL Site,37.3825,-122.0086,6085
Applied Materials,31.94,California,Santa Clara,NPL Site,37.3777,-121.9777,6085
Intel Magnetics,31.94,California,Santa Clara,NPL Site,37.3756,-121.9801,6085
Monolithic Memories,35.57,California,Santa Clara,NPL Site,37.3816,-121.9968,6085
National Semiconductor Corp.,35.57,California,Santa Clara,NPL Site,37.375281,-121.9989,6085
"United Metals, Inc.",33.73,Florida,Jackson,NPL Site,30.685833,-85.168056,12063
"City Industries, Inc.",32.0,Florida,Orange,NPL Site,28.601389,-81.3,12095
Flash Cleaners,50.0,Florida,Broward,NPL Site,26.2824,-80.0969,12011
Arkla Terra Property,50.0,Florida,Hillsborough,NPL Site,28.057778000000006,-82.3175,12057
Raleigh Street Dump,50.0,Florida,Hillsborough,NPL Site,27.914417,-82.410861,12057
General Dynamics Longwood,50.0,Florida,Seminole,NPL Site,28.71662,-81.32122,12117
JJ Seifert Machine,50.0,Florida,Hillsborough,NPL Site,27.678611,-82.477778,12057
Kerr-McGee Chemical Corp - Jacksonville,70.71,Florida,Duval,NPL Site,30.3442,-81.6265,12031
Sanford Dry Cleaners,50.0,Florida,Seminole,NPL Site,28.811217,-81.265606,12117
Continental Cleaners,50.0,Florida,Miami-Dade,NPL Site,25.831842,-80.210178,12086
Fairfax St. Wood Treaters,50.0,Florida,Duval,NPL Site,30.354092,-81.68639399999998,12031
Post and Lumber Preserving Co. Inc.,36.33,Florida,Gadsden,NPL Site,30.592472,-84.510081,12039
Hercules 009 Landfill,52.58,Georgia,Glynn,NPL Site,31.2049,-81.4858,13127
Robins Air Force Base (Landfill #4/Sludge Lagoon),51.66,Georgia,Houston,NPL Site,32.619983000000005,-83.582075,13153
"Woolfolk Chemical Works, Inc.",42.24,Georgia,Peach,NPL Site,32.549581,-83.88416099999998,13225
Mathis Brothers Landfill (South Marble Top Road),30.78,Georgia,Walker,NPL Site,34.797781,-85.377781,13295
Diamond Shamrock Corp. Landfill,35.6,Georgia,Polk,NPL Site,34.0207,-85.2717,13233
T.H. Agriculture & Nutrition Co. (Albany Plant),40.93,Georgia,Dougherty,NPL Site,31.617361,-84.181661,13095
Marzone Inc./Chevron Chemical Co.,30.26,Georgia,Tift,NPL Site,31.4289,-83.5017,13277
Firestone Tire & Rubber Co. (Albany Plant),30.08,Georgia,Dougherty,NPL Site,31.565831,-84.053889,13095
Marine Corps Logistics Base,44.65,Georgia,Dougherty,NPL Site,31.557219,-84.055,13095
LCP Chemicals Georgia,0.0,Georgia,Glynn,NPL Site,31.189444,-81.508333,13127
Brunswick Wood Preserving,54.49,Georgia,Glynn,NPL Site,31.242222,-81.528056,13127
Camilla Wood Preserving Company,50.0,Georgia,Mitchell,NPL Site,31.2225,-84.20333000000002,13205
Peach Orchard Road PCE Ground Water Plume,50.0,Georgia,Richmond,NPL Site,33.421178000000005,-82.015139,13245
Alternate Energy Resources,50.0,Georgia,Richmond,NPL Site,33.454194,-82.03694399999998,13245
Armstrong World Industries,50.0,Georgia,Bibb,NPL Site,32.773497,-83.6516,13021
Macon Naval Ordnance Plant,48.97,Georgia,Bibb,NPL Site,32.777658,-83.639675,13021
Ordot Landfill,0.0,Guam,Guam,NPL Site,13.439169,144.7474,66010
Andersen Air Force Base,50.0,Guam,Guam,NPL Site,13.572916,144.89736100000005,66010
Pearl Harbor Naval Complex,70.82,Hawaii,Honolulu,NPL Site,21.388889,-157.98333300000004,15003
Del Monte Corp. (Oahu Plantation),50.0,Hawaii,Honolulu,NPL Site,21.458333,-158.066667,15003
Naval Computer and Telecommunications Area Master Station Eastern Pacific,50.0,Hawaii,Honolulu,NPL Site,21.519027,-158.005138,15003
Des Moines TCE,42.28,Iowa,Polk,NPL Site,41.5781,-93.636,19153
Midwest Manufacturing/North Farm,32.04,Iowa,Jasper,NPL Site,41.746811,-92.893061,19099
Vogel Paint & Wax Co.,31.45,Iowa,Sioux,NPL Site,42.93443900000001,-96.193339,19167
Lawrence Todtz Farm,52.11,Iowa,Clinton,NPL Site,41.787781,-90.292639,19045
Shaw Avenue Dump,30.01,Iowa,Floyd,NPL Site,43.0563,-92.6631,19067
Fairfield Coal Gasification Plant,38.05,Iowa,Jefferson,NPL Site,41.0062,-91.9724,19101
Peoples Natural Gas Co.,46.24,Iowa,Dubuque,NPL Site,42.505281,-90.658889,19061
Iowa Army Ammunition Plant,29.73,Iowa,Des Moines,NPL Site,40.808331,-91.246669,19057
Mason City Coal Gasification Plant,69.33,Iowa,Cerro Gordo,NPL Site,43.1476,-93.1992,19033
Railroad Avenue Groundwater Contamination,50.0,Iowa,Polk,NPL Site,41.578333,-93.702222,19153
PCE Former Dry Cleaner,50.0,Iowa,Cass,NPL Site,41.403717,-94.995764,19029
Bunker Hill Mining & Metallurgical Complex,54.76,Idaho,Shoshone,NPL Site,47.543061,-116.1617,16079
Eastern Michaud Flats Contamination,57.8,Idaho,Bannock,NPL Site,42.901111,-112.5225,16005
Idaho National Engineering Laboratory (USDOE),51.91,Idaho,Bingham,NPL Site,43.529389,-112.9435,16011
Mountain Home Air Force Base,57.8,Idaho,Elmore,NPL Site,43.04805,-115.8647,16039
Monsanto Chemical Co. (Soda Springs Plant),54.77,Idaho,Caribou,NPL Site,42.687031,-111.5878,16029
Kerr-McGee Chemical Corp. (Soda Springs Plant),51.91,Idaho,Caribou,NPL Site,42.687219,-111.5736,16029
"Acme Solvents Reclaiming, Inc. (Morristown Plant)",31.98,Illinois,Winnebago,NPL Site,42.1577,-89.0455,17201
Byron Salvage Yard,33.93,Illinois,Ogle,NPL Site,42.081669,-89.295831,17141
Cross Brothers Pail Recycling (Pembroke),42.04,Illinois,Kankakee,NPL Site,41.0909,-87.5893,17091
Galesburg/Koppers Co.,34.78,Illinois,Knox,NPL Site,40.895831,-90.395839,17095
Johns-Manville Corp.,38.2,Illinois,Lake,NPL Site,42.386669,-87.811669,17097
LaSalle Electric Utilities,42.06,Illinois,La Salle,NPL Site,41.354169,-89.0975,17099
Outboard Marine Corp.,0.0,Illinois,Lake,NPL Site,42.365281,-87.821111,17097
Velsicol Chemical Corp. (Marshall Plant),48.78,Illinois,Clark,NPL Site,39.410831,-87.699169,17023
Wauconda Sand & Gravel,53.42,Illinois,Lake,NPL Site,42.281389,-88.1375,17097
Kerr-McGee (Kress Creek/West Branch of DuPage River),39.05,Illinois,Du Page,NPL Site,41.863611,-88.2093,17043
Yeoman Creek Landfill,33.23,Illinois,Lake,NPL Site,42.388889,-87.848611,17097
"Chemical Commodities, Inc.",50.0,Kansas,Johnson,NPL Site,38.878194,-94.805556,20091
Kerr-McGee (Residential Areas),38.15,Illinois,Du Page,NPL Site,41.87833300000001,-88.2075,17043
Sangamo Electric Dump/Crab Orchard National Wildlife Refuge (USDOI),43.7,Illinois,Will,NPL Site,37.693194,-89.01472199999998,17197
NL Industries/Taracorp Lead Smelter,38.11,Illinois,Madison,NPL Site,38.695,-90.158331,17119
Ace Services,50.0,Kansas,Thomas,NPL Site,39.396944,-101.039167,20193
Wright Ground Water Contamination,50.0,Kansas,Ford,NPL Site,37.780556,-99.888889,20057
"Plating, Inc.",50.0,Kansas,Barton,NPL Site,38.346542,-98.84946,20009
Former United Zinc & Associated Smelters,50.0,Kansas,Allen,NPL Site,37.92228,-95.3859,20001
Airco,33.29,Kentucky,Marshall,NPL Site,37.0496,-88.3225,21157
B.F. Goodrich,33.01,Kentucky,Marshall,NPL Site,37.0503,-88.3234,21157
Distler Brickyard,44.77,Kentucky,Hardin,NPL Site,37.989719,-85.951389,21093
Distler Farm,34.62,Kentucky,Jefferson,NPL Site,38.006939,-85.931111,21111
Maxey Flats Nuclear Disposal,31.71,Kentucky,Fleming,NPL Site,38.2608,-83.5692,21069
Smith's Farm,32.69,Kentucky,Bullitt,NPL Site,38.0375,-85.733331,21029
"Green River Disposal, Inc.",29.12,Kentucky,Daviess,NPL Site,37.88945,-86.973611,21059
"Caldwell Lace Leather Co., Inc.",34.21,Kentucky,Logan,NPL Site,36.8725,-86.74638900000002,21141
Brantley Landfill,52.73,Kentucky,McLean,NPL Site,37.44625,-87.156111,21149
Fort Hartford Coal Co. Stone Quarry,43.84,Kentucky,Ohio,NPL Site,37.53888900000001,-86.70276899999998,21183
Tri-City Disposal Co.,33.82,Kentucky,Bullitt,NPL Site,38.047781,-85.768331,21029
National Electric Coil Co./Cooper Industries,50.0,Kentucky,Harlan,NPL Site,36.843889,-83.37138900000002,21095
Paducah Gaseous Diffusion Plant (USDOE),56.95,Kentucky,McCracken,NPL Site,37.120138,-88.811111,21145
Bayou Bonfouca,29.78,Louisiana,St Tammany,NPL Site,30.282219,-89.784161,22103
"Petro-Processors of Louisiana, Inc.",41.44,Louisiana,East Baton Rouge,NPL Site,30.583331,-91.243331,22033
"American Creosote Works, Inc. (Winnfield Plant)",50.7,Louisiana,Winn,NPL Site,31.918611,-92.634722,22127
Agriculture Street Landfill,50.0,Louisiana,Orleans,NPL Site,29.98866,-90.040165,22071
Madisonville Creosote Works,48.01,Louisiana,St Tammany,NPL Site,30.427222,-90.198611,22103
Marion Pressure Treating,50.0,Louisiana,Union,NPL Site,32.908333,-92.252944,22111
Louisiana Army Ammunition Plant,30.26,Louisiana,Webster,NPL Site,32.5422,-93.421,22119
"Combustion, Inc.",33.79,Louisiana,Livingston,NPL Site,30.5129,-90.8939,22063
EVR-Wood Treating/Evangeline Refining Company,48.2,Louisiana,Acadia,NPL Site,30.248056,-92.6175,22001
Delta Shipyard,48.05,Louisiana,Terrebonne,NPL Site,29.565818,-90.705141,22109
Colonial Creosote,50.0,Louisiana,Washington,NPL Site,30.768056,-89.863889,22117
SBA Shipyard ,50.0,Louisiana,Jefferson,NPL Site,30.160603,-92.612236,22051
American Creosote DeRidder,50.0,Louisiana,Beauregard,NPL Site,30.831693,-93.276863,22011
Baird & McGuire,66.35,Massachusetts,Norfolk,NPL Site,42.149719,-71.028611,25021
Charles-George Reclamation Trust Landfill,47.2,Massachusetts,Middlesex,NPL Site,42.66945,-71.443339,25017
Groveland Wells,40.74,Massachusetts,Essex,NPL Site,42.753331,-71.038889,25009
Hocomonco Pond,44.8,Massachusetts,Worcester,NPL Site,42.272781,-71.65083100000003,25027
Industri-Plex,72.42,Massachusetts,Middlesex,NPL Site,42.516669,-71.141669,25017
New Bedford Site,0.0,Massachusetts,Bristol,NPL Site,41.643171,-70.919887,25005
Nyanza Chemical Waste Dump,69.22,Massachusetts,Middlesex,NPL Site,42.258611,-71.473611,25017
PSC Resources,38.66,Massachusetts,Hampden,NPL Site,42.153331,-72.330281,25013
"Re-Solve, Inc.",47.71,Massachusetts,Bristol,NPL Site,41.688061,-71.033889,25005
Rose Disposal Pit,33.03,Massachusetts,Berkshire,NPL Site,42.5055,-73.2748,25003
Silresim Chemical Corp.,42.72,Massachusetts,Middlesex,NPL Site,42.628889,-71.313889,25017
"W.R. Grace & Co., Inc. (Acton Plant)",59.31,Massachusetts,Middlesex,NPL Site,42.45055,-71.42778100000002,25017
Wells G&H,42.71,Massachusetts,Middlesex,NPL Site,42.494719,-71.130839,25017
Haverhill Municipal Landfill,30.29,Massachusetts,Essex,NPL Site,42.753889,-71.046669,25009
Iron Horse Park,42.93,Massachusetts,Middlesex,NPL Site,42.583331,-71.26526899999998,25017
Sullivan's Ledge,32.77,Massachusetts,Bristol,NPL Site,41.654719,-70.957219,25005
Otis Air National Guard Base/Camp Edwards,45.92,Massachusetts,Barnstable,NPL Site,41.651666,-70.521388,25001
Atlas Tack Corp.,42.6,Massachusetts,Bristol,NPL Site,41.635561,-70.89445,25005
Fort Devens,42.24,Massachusetts,Middlesex,NPL Site,42.536111,-71.596111,25017
Blackburn and Union Privileges,50.0,Massachusetts,Norfolk,NPL Site,42.138749,-71.251667,25021
Hanscom Field/Hanscom Air Force Base,50.0,Massachusetts,Middlesex,NPL Site,42.470666,-71.28944399999997,25017
"Natick Laboratory Army Research, Development, and Engineering Center",50.0,Massachusetts,Middlesex,NPL Site,42.28888900000001,-71.36361099999998,25017
Naval Weapons Industrial Reserve Plant,50.0,Massachusetts,Middlesex,NPL Site,42.478889,-71.290277,25017
South Weymouth Naval Air Station,50.0,Massachusetts,Norfolk,NPL Site,42.15527700000001,-70.93347,25021
"Nuclear Metals, Inc.",58.31,Massachusetts,Middlesex,NPL Site,42.441667,-71.421944,25017
Sutton Brook Disposal Area,57.12,Massachusetts,Middlesex,NPL Site,42.598222,-71.183194,25017
Olin Chemical,50.0,Massachusetts,Middlesex,NPL Site,42.528056,-71.153889,25017
Creese & Cook Tannery (Former),60.57,Massachusetts,Essex,NPL Site,42.553111,-70.926722,25009
Walton & Lonsbury Inc.,58.3,Massachusetts,Bristol,NPL Site,41.957583,-71.297139,25005
BJAT LLC,41.91,Massachusetts,Norfolk,NPL Site,42.074417,-71.41080600000002,25021
"Microfab, Inc. (Former)",50.0,Massachusetts,Essex,NPL Site,42.842394,-70.95984200000002,25009
Limestone Road,30.54,Maryland,Allegany,NPL Site,39.626389,-78.722219,24001
"Sand, Gravel and Stone",41.08,Maryland,Cecil,NPL Site,39.615281,-75.896389,24015
DuPage County Landfill/Blackwell Forest,35.57,Illinois,Du Page,NPL Site,41.8326,-88.1787,17043
Southeast Rockford Ground Water Contamination,42.24,Illinois,Winnebago,NPL Site,42.230689,-89.071111,17201
Amoco Chemicals (Joliet Landfill),39.44,Illinois,Will,NPL Site,41.441669,-88.172781,17197
"Interstate Pollution Control, Inc.",46.01,Illinois,Winnebago,NPL Site,42.24100000000001,-89.098,17201
Central Illinois Public Service Co.,28.95,Illinois,Christian,NPL Site,39.5404,-89.2975,17021
Woodstock Municipal Landfill,50.1,Illinois,Henry,NPL Site,42.2923,-88.4402,17073
MIG/Dewane Landfill,49.91,Illinois,Boone,NPL Site,42.255917,-88.806944,17007
"Lenz Oil Service, Inc.",42.33,Illinois,Du Page,NPL Site,41.7068,-87.9422,17043
Adams County Quincy Landfills 2&3,34.21,Illinois,Adams,NPL Site,39.929444,-91.268472,17001
Beloit Corp.,52.08,Illinois,Winnebago,NPL Site,42.468611,-89.06555,17201
Ottawa Radiation Areas,50.0,Illinois,La Salle,NPL Site,41.351667,-88.836111,17099
Jennison-Wright Corporation,40.3,Illinois,Madison,NPL Site,38.708333,-90.1525,17119
DePue/New Jersey Zinc/Mobil Chemical Corp.,70.71,Illinois,Bureau,NPL Site,41.327778,-89.304167,17011
Indian Refinery-Texaco Lawrenceville,56.67,Illinois,Lawrence,NPL Site,38.715556,-87.682222,17101
Matthiessen and Hegeler Zinc Company,50.0,Illinois,La Salle,NPL Site,41.34215,-89.083067,17099
Savanna Army Depot Activity,42.2,Illinois,Jo Daviess,NPL Site,42.21,-90.313331,17085
Joliet Army Ammunition Plant (Load-Assembly-Packing Area),35.23,Illinois,Will,NPL Site,41.3662,-88.0772,17197
Hegeler Zinc,50.0,Illinois,Vermilion,NPL Site,40.076322,-87.650092,17183
Lake Calumet Cluster,30.0,Illinois,Cook,NPL Site,41.679444,-87.568889,17031
ASARCO Taylor Springs,30.0,Illinois,Montgomery,NPL Site,39.11867700000001,-89.50545799999998,17135
Eagle Zinc Co Div T L Diamond,50.0,Illinois,Montgomery,NPL Site,39.161167,-89.476417,17135
Chemetco,30.0,Illinois,Madison,NPL Site,38.799,-90.098,17119
Sandoval Zinc Company,30.0,Illinois,Marion,NPL Site,38.613061,-89.108251,17121
Bautsch-Gray Mine,48.97,Illinois,Jo Daviess,NPL Site,42.357422,-90.398569,17085
Estech General Chemical Company,30.0,Illinois,Cook,NPL Site,41.628303,-87.526905,17031
Old American Zinc Plant,30.0,Illinois,St Clair,NPL Site,38.648,-90.099,17163
Schroud Property,50.0,Illinois,Cook,NPL Site,41.662606,-87.543503,17031
Envirochem Corp.,46.44,Indiana,Boone,NPL Site,40.03,-86.278339,18011
Fisher-Calo,52.05,Indiana,La Porte,NPL Site,41.5081,-86.6709,18091
Fort Wayne Reduction Dump,42.47,Indiana,Allen,NPL Site,41.075,-85.06666899999998,18003
Lake Sandy Jo (M&M Landfill),38.21,Indiana,Lake,NPL Site,41.570839,-87.382231,18089
Lemon Lane Landfill,29.31,Indiana,Monroe,NPL Site,39.1731,-86.5598,18105
Main Street Well Field,42.49,Indiana,Elkhart,NPL Site,41.696389,-85.979161,18039
Marion (Bragg) Dump,35.25,Indiana,Grant,NPL Site,40.537781,-85.633061,18053
MIDCO I,46.44,Indiana,Lake,NPL Site,41.5895,-87.4284,18089
MIDCO II,30.16,Indiana,Lake,NPL Site,41.622781,-87.408611,18089
Neal's Landfill (Bloomington),42.93,Indiana,Monroe,NPL Site,39.1667,-86.6405,18105
Ninth Avenue Dump,40.32,Indiana,Lake,NPL Site,41.5934,-87.429,18089
Reilly Tar & Chemical Corp. (Indianapolis Plant),34.03,Indiana,Marion,NPL Site,39.740281,-86.218331,18097
Seymour Recycling Corp.,0.0,Indiana,Jackson,NPL Site,38.9352,-85.9213,18071
Wayne Waste Oil,42.33,Indiana,Whitley,NPL Site,41.1525,-85.476111,18183
"American Chemical Service, Inc.",34.98,Indiana,Lake,NPL Site,41.5142,-87.4191,18089
Bennett Stone Quarry,32.55,Indiana,Monroe,NPL Site,39.1902,-86.5612,18105
"Northside Sanitary Landfill, Inc.",46.04,Indiana,Boone,NPL Site,40.028331,-86.273331,18011
"Douglass Road/Uniroyal, Inc., Landfill",36.61,Indiana,St Joseph,NPL Site,41.7132,-86.1926,18141
Himco Dump,42.31,Indiana,Elkhart,NPL Site,41.7073,-86.0084,18039
"Tippecanoe Sanitary Landfill, Inc",42.24,Indiana,Tippecanoe,NPL Site,40.456111,-86.872219,18157
"Lakeland Disposal Service, Inc.",34.1,Indiana,Kosciusko,NPL Site,41.1475,-85.91721899999997,18085
Conrail Rail Yard (Elkhart),42.24,Indiana,Elkhart,NPL Site,41.6634,-86.0115,18039
Continental Steel Corp.,31.85,Indiana,Howard,NPL Site,40.474169,-86.156299,18067
Galen Myers Dump/Drum Salvage,42.24,Indiana,St Joseph,NPL Site,41.695839,-86.0875,18141
Cam-Or Inc.,58.91,Indiana,La Porte,NPL Site,41.546528,-86.89930600000002,18091
Prestolite Battery Division,40.63,Indiana,Knox,NPL Site,38.691669,-87.501661,18083
Jacobsville Neighborhood Soil Contamination,35.52,Indiana,Vanderburgh,NPL Site,37.979297,-87.563989,18163
Elm Street Ground Water Contamination,50.0,Indiana,Vigo,NPL Site,39.476586,-87.41431899999998,18167
Lusher Street Ground Water Contamination,50.0,Indiana,Elkhart,NPL Site,41.672922,-85.996225,18039
"U.S. Smelter and Lead Refinery, Inc.",58.31,Indiana,Lake,NPL Site,41.616758,-87.464046,18089
Lane Street Ground Water Contamination,40.53,Indiana,Elkhart,NPL Site,41.716847,-85.921006,18039
Gary Development Landfill,30.0,Indiana,Lake,NPL Site,41.614061,-87.426447,18089
Pike and Mulberry Streets PCE Plume,50.0,Indiana,Morgan,NPL Site,39.428661,-86.431789,18109
Beck's Lake,50.0,Indiana,St Joseph,NPL Site,41.676581,-86.297514,18141
Garden City Ground Water Plume,50.0,Indiana,Bartholomew,NPL Site,39.186075,-85.930472,18005
Keystone Corridor Ground Water Contamination,50.0,Indiana,Marion,NPL Site,39.834722,-86.121667,18097
North Shore Drive,50.0,Indiana,Elkhart,NPL Site,41.684722,-86.055,18039
Kokomo Contaminated Ground Water Plume,50.0,Indiana,Howard,NPL Site,40.479444,-86.11412800000002,18067
Broadway Street Corridor Groundwater Contamination,50.0,Indiana,Madison,NPL Site,40.1184,-85.6789,18095
Franklin Street Groundwater Contamination,50.0,Indiana,Owen,NPL Site,39.2849,-86.7645,18119
Cliff Drive Groundwater Contamination,50.0,Indiana,Cass,NPL Site,40.7432,-86.3803,18017
Doepke Disposal (Holliday),47.46,Kansas,Johnson,NPL Site,39.033331,-94.8,20091
Cherokee County,58.15,Kansas,Cherokee,NPL Site,37.003889,-94.823889,20021
Strother Field Industrial Park,33.62,Kansas,Cowley,NPL Site,37.170831,-97.031939,20035
Obee Road,33.62,Kansas,Reno,NPL Site,38.063889,-97.851389,20155
Pester Refinery Co.,30.16,Kansas,Butler,NPL Site,37.8438,-96.8574,20015
Formosa Mine,50.0,Oregon,Douglas,NPL Site,42.854472,-123.382611,41019
Black Butte Mine,50.0,Oregon,Lane,NPL Site,43.579516,-123.066808,41039
North Ridge Estates,0.0,Oregon,Klamath,NPL Site,42.2648,-121.7465,41035
Blosenski Landfill,30.57,Pennsylvania,Chester,NPL Site,40.02,-75.91055,42029
Centre County Kepone,45.09,Pennsylvania,Centre,NPL Site,40.823611,-77.80833100000002,42027
Douglassville Disposal,55.18,Pennsylvania,Berks,NPL Site,40.2575,-75.735281,42011
Drake Chemical,38.52,Pennsylvania,Clinton,NPL Site,41.129169,-77.443611,42035
Fischer & Porter Co.,29.07,Pennsylvania,Bucks,NPL Site,40.183889,-75.0925,42017
Havertown PCP,38.34,Pennsylvania,Delaware,NPL Site,39.982781,-75.318611,42045
Heleva Landfill,50.23,Pennsylvania,Lehigh,NPL Site,40.670831,-75.5625,42077
Kimberton,29.44,Pennsylvania,Chester,NPL Site,40.12695,-75.575,42029
Lindane Dump,51.62,Pennsylvania,Allegheny,NPL Site,40.6257,-79.7155,42003
Lord-Shope Landfill,38.89,Pennsylvania,Erie,NPL Site,41.977781,-80.3525,42049
Malvern TCE,46.69,Pennsylvania,Chester,NPL Site,40.061669,-75.56805,42029
Metal Banks,33.23,Pennsylvania,Philadelphia,NPL Site,40.024169,-75.027781,42101
Mill Creek Dump,49.31,Pennsylvania,Erie,NPL Site,42.093331,-80.152781,42049
Old City of York Landfill,33.93,Pennsylvania,York,NPL Site,39.840281,-76.75971899999998,42133
Osborne Landfill,54.6,Pennsylvania,Mercer,NPL Site,41.161111,-80.05833100000002,42085
Palmerton Zinc Pile,42.93,Pennsylvania,Carbon,NPL Site,40.808331,-75.583339,42025
Stanley Kessler,33.89,Pennsylvania,Montgomery,NPL Site,40.083889,-75.355,42091
Berks Sand Pit,32.02,Pennsylvania,Berks,NPL Site,40.4646,-75.6273,42011
East Mount Zion,41.01,Pennsylvania,York,NPL Site,40.0075,-76.66528100000002,42133
Henderson Road,41.69,Pennsylvania,Montgomery,NPL Site,40.086939,-75.35555,42091
Walsh Landfill,33.64,Pennsylvania,Chester,NPL Site,40.119719,-75.91528100000002,42029
Raymark,53.42,Pennsylvania,Montgomery,NPL Site,40.179719,-75.098611,42091
Industrial Lane,42.47,Pennsylvania,Northampton,NPL Site,40.665831,-75.228611,42095
Tysons Dump,63.1,Pennsylvania,Montgomery,NPL Site,40.111389,-75.36278100000001,42091
Letterkenny Army Depot (SE Area),34.21,Pennsylvania,Franklin,NPL Site,39.9957,-77.6444,42055
Modern Sanitation Landfill,33.93,Pennsylvania,York,NPL Site,39.960561,-76.5925,42133
MW Manufacturing,46.44,Pennsylvania,Montour,NPL Site,40.99,-76.641669,42093
Brown's Battery Breaking,37.34,Pennsylvania,Berks,NPL Site,40.519439,-76.001389,42011
Hunterstown Road,48.27,Pennsylvania,Adams,NPL Site,39.85305,-77.20611099999998,42001
Westinghouse Elevator Co. Plant,36.37,Pennsylvania,Adams,NPL Site,39.857219,-77.24,42001
Whitmoyer Laboratories,46.25,Pennsylvania,Lebanon,NPL Site,40.364719,-76.325,42075
"Delta Quarries & Disposal, Inc./Stotler Landfill",41.08,Pennsylvania,Blair,NPL Site,40.553611,-78.35445,42013
Shriver's Corner,46.13,Pennsylvania,Adams,NPL Site,39.8999,-77.2055,42001
Keystone Sanitation Landfill,33.76,Pennsylvania,Adams,NPL Site,39.72445,-77.036111,42001
Croydon TCE,31.6,Pennsylvania,Bucks,NPL Site,40.084934,-74.8892,42017
Revere Chemical Co.,31.31,Pennsylvania,Bucks,NPL Site,40.502781,-75.16888900000002,42017
Bendix Flight Systems Division,33.74,Pennsylvania,Susquehanna,NPL Site,41.797361,-75.88625,42115
Bally Ground Water Contamination,37.93,Pennsylvania,Berks,NPL Site,40.3984,-75.5933,42011
"CryoChem, Inc.",28.58,Pennsylvania,Berks,NPL Site,40.317219,-75.69166899999998,42011
Eastern Diversified Metals,31.02,Pennsylvania,Schuylkill,NPL Site,40.829439,-75.9975,42107
Naval Air Development Center (8 Waste Areas),57.93,Pennsylvania,Bucks,NPL Site,40.1996,-75.0642,42017
Hellertown Manufacturing Co.,51.91,Pennsylvania,Northampton,NPL Site,40.595417,-75.340947,42095
Novak Sanitary Landfill,42.31,Pennsylvania,Lehigh,NPL Site,40.6332,-75.5611,42077
Commodore Semiconductor Group,42.35,Pennsylvania,Montgomery,NPL Site,40.1241,-75.4194,42091
Saegertown Industrial Area,33.62,Pennsylvania,Crawford,NPL Site,41.71884,-80.142972,42039
Avco Lycoming (Williamsport Division),42.24,Pennsylvania,Lycoming,NPL Site,41.244031,-77.041111,42081
Bell Landfill,34.79,Pennsylvania,Bradford,NPL Site,41.633061,-76.389169,42015
William Dick Lagoons,36.64,Pennsylvania,Chester,NPL Site,40.041939,-75.898061,42029
Boarhead Farms,39.92,Pennsylvania,Bucks,NPL Site,40.545831,-75.125,42017
Westinghouse Electric Corp. (Sharon Plant),41.33,Pennsylvania,Mercer,NPL Site,41.2434,-80.5058,42085
Occidental Chemical Corp./Firestone Tire & Rubber Co.,45.91,Pennsylvania,Montgomery,NPL Site,40.232081,-75.61416899999998,42091
North Penn - Area 1,35.57,Pennsylvania,Montgomery,NPL Site,40.3108,-75.3252,42091
North Penn - Area 12,28.9,Pennsylvania,Montgomery,NPL Site,40.1807,-75.3537,42091
North Penn - Area 7,35.57,Pennsylvania,Montgomery,NPL Site,40.218061,-75.278889,42091
North Penn - Area 6,35.57,Pennsylvania,Montgomery,NPL Site,40.248331,-75.29563900000002,42091
North Penn - Area 2,35.57,Pennsylvania,Montgomery,NPL Site,40.293889,-75.297781,42091
North Penn - Area 5,35.57,Pennsylvania,Montgomery,NPL Site,40.2721,-75.2451,42091
Tonolli Corp.,46.58,Pennsylvania,Carbon,NPL Site,40.850561,-75.881111,42025
Butz Landfill,32.0,Pennsylvania,Monroe,NPL Site,41.0335,-75.3438,42089
"Jacks Creek/Sitkin Smelting & Refining, Inc.",40.37,Pennsylvania,Mifflin,NPL Site,40.641531,-77.47528100000002,42087
Elizabethtown Landfill,28.98,Pennsylvania,Lancaster,NPL Site,40.132781,-76.608189,42071
A.I.W. Frank/Mid-County Mustang,42.4,Pennsylvania,Chester,NPL Site,40.031811,-75.6032,42029
Tobyhanna Army Depot,37.93,Pennsylvania,Monroe,NPL Site,41.19305,-75.419439,42089
Dublin TCE Site,28.9,Pennsylvania,Bucks,NPL Site,40.370892,-75.204897,42017
Ohio River Park,42.24,Pennsylvania,Allegheny,NPL Site,40.518611,-80.1525,42003
Crossley Farm,29.66,Pennsylvania,Berks,NPL Site,40.435417,-75.620611,42011
American Thermostat Co.,33.61,New York,Greene,NPL Site,42.266939,-73.94111099999998,36039
Brewster Well Field,37.93,New York,Putnam,NPL Site,41.401669,-73.6,36079
"Facet Enterprises, Inc.",46.67,New York,Chemung,NPL Site,42.1325,-76.829169,36015
Tooele Army Depot (North Area),53.95,Utah,Tooele,NPL Site,40.541669,-112.375,49045
Shenandoah Road Ground Water Contamination,50.0,New York,Dutchess,NPL Site,41.526111,-73.792222,36027
"Rodale Manufacturing Co., Inc.",50.0,Pennsylvania,Lehigh,NPL Site,40.531111,-75.49333299999998,42077
GE Moreau,58.21,New York,Saratoga,NPL Site,43.28305,-73.62916899999998,36091
Hooker (S Area),51.62,New York,Niagara,NPL Site,43.0757,-79.0054,36063
Kentucky Avenue Well Field,39.65,New York,Chemung,NPL Site,42.145831,-76.828331,36015
"Mercury Refining, Inc.",44.58,New York,Albany,NPL Site,42.689719,-73.80416899999999,36001
Old Bethpage Landfill,58.83,New York,Nassau,NPL Site,40.756939,-73.44721899999998,36059
Olean Well Field,44.46,New York,Cattaraugus,NPL Site,42.069439,-78.404719,36009
Pollution Abatement Services,0.0,New York,Oswego,NPL Site,43.47,-76.483331,36075
Port Washington Landfill,45.46,New York,Nassau,NPL Site,40.81805,-73.666661,36059
Ramapo Landfill,44.73,New York,Rockland,NPL Site,41.14,-74.161389,36087
Sinclair Refinery,53.9,New York,Allegany,NPL Site,42.1088,-77.9416,36003
Solvent Savers,34.78,New York,Chenango,NPL Site,42.665,-75.876661,36017
York Oil Co.,47.7,New York,Franklin,NPL Site,44.8225,-74.5751,36033
General Motors (Central Foundry Division),40.71,New York,St Lawrence,NPL Site,44.98388900000001,-74.732781,36089
Hudson River PCBs,54.66,New York,Rensselaer,NPL Site,43.1102,-73.5765,36083
Vestal Water Supply Well 1-1,37.93,New York,Broome,NPL Site,42.0902,-76.0557,36007
Sarney Farm,33.2,New York,Dutchess,NPL Site,41.75555,-73.561389,36027
Hooker Chemical & Plastics Corp./Ruco Polymer Corp.,41.6,New York,Nassau,NPL Site,40.7575,-73.50416899999998,36059
"Mattiace Petrochemical Co., Inc.",31.9,New York,Nassau,NPL Site,40.8608,-73.6432,36059
Carroll & Dubies Sewage Disposal,33.74,New York,Orange,NPL Site,41.3942,-74.6681,36071
Cortese Landfill,32.11,New York,Sullivan,NPL Site,41.600561,-75.065,36105
Liberty Industrial Finishing,50.65,New York,Nassau,NPL Site,40.72625,-73.44888900000002,36059
Johnstown City Landfill,48.36,New York,Fulton,NPL Site,43.043061,-74.393061,36035
Volney Municipal Landfill,32.89,New York,Oswego,NPL Site,43.36055,-76.37916899999998,36075
Claremont Polychemical,31.62,New York,Nassau,NPL Site,40.7576,-73.4432,36059
"Tri-Cities Barrel Co., Inc.",44.06,New York,Broome,NPL Site,42.15805,-75.811939,36007
Endicott Village Well Field,35.57,New York,Broome,NPL Site,42.086111,-76.086111,36007
Applied Environmental Services,41.15,New York,Nassau,NPL Site,40.823054,-73.646693,36059
Colesville Municipal Landfill,30.26,New York,Broome,NPL Site,42.160419,-75.58945,36007
"Goldisc Recordings, Inc.",33.39,New York,Suffolk,NPL Site,40.7745,-73.0647,36103
Hertel Landfill,33.62,New York,Ulster,NPL Site,41.688061,-74.038889,36111
Preferred Plating Corp.,35.06,New York,Suffolk,NPL Site,40.7158,-73.4253,36103
"Nepera Chemical Co., Inc.",39.87,New York,Orange,NPL Site,41.4643,-74.2447,36071
Byron Barrel & Drum,37.27,New York,Genesee,NPL Site,43.1191,-78.1103,36037
FMC Corp. (Dublin Road Landfill),32.9,New York,Orleans,NPL Site,43.2172,-78.4417,36073
"Robintech, Inc./National Pipe Co.",30.75,New York,Broome,NPL Site,42.1049,-75.9922,36007
Haviland Complex,33.62,New York,Dutchess,NPL Site,41.771111,-73.908061,36027
Griffiss Air Force Base,34.2,New York,Oneida,NPL Site,43.233331,-75.416661,36065
Richardson Hill Road Landfill/Pond,34.86,New York,Delaware,NPL Site,42.252781,-75.249169,36025
Malta Rocket Fuel Area,33.62,New York,Saratoga,NPL Site,42.963889,-73.75833100000001,36091
Genzale Plating Co.,33.79,New York,Nassau,NPL Site,40.7153,-73.6777,36059
Rowe Industries Ground Water Contamination,31.94,New York,Suffolk,NPL Site,40.982781,-72.3,36103
Islip Municipal Sanitary Landfill,33.39,New York,Suffolk,NPL Site,40.8178,-73.1829,36103
Circuitron Corp.,54.27,New York,Suffolk,NPL Site,40.7495,-73.4195,36103
Sidney Landfill,29.36,New York,Delaware,NPL Site,42.2577,-75.243,36025
"Jones Chemicals, Inc.",33.62,New York,Livingston,NPL Site,42.976531,-77.845561,36051
Rosen Brothers Scrap Yard/Dump,51.35,New York,Cortland,NPL Site,42.591669,-76.17528100000001,36023
Niagara Mohawk Power Corp. (Saratoga Spings Plant),35.48,New York,Saratoga,NPL Site,43.09,-73.776111,36091
Plattsburgh Air Force Base,30.34,New York,Clinton,NPL Site,44.6575,-73.46471899999997,36019
Seneca Army Depot,35.52,New York,Seneca,NPL Site,42.75,-76.85445,36099
Brookhaven National Laboratory (USDOE),39.92,New York,Suffolk,NPL Site,40.86,-72.86958299999998,36103
"Sealand Restoration, Inc.",29.36,New York,St Lawrence,NPL Site,44.703611,-75.361531,36089
Forest Glen Mobile Home Subdivision,0.0,New York,Niagara,NPL Site,43.1127,-78.9995,36063
Li Tungsten Corp.,50.0,New York,Nassau,NPL Site,40.860929,-73.640773,36059
Onondaga Lake,50.0,New York,Onondaga,NPL Site,43.069444,-76.208056,36067
GCL Tie and Treating Inc.,48.54,New York,Delaware,NPL Site,42.300555,-75.413333,36025
Little Valley,0.0,New York,Cattaraugus,NPL Site,42.236667,-78.766944,36009
Fulton Avenue,33.08,New York,Nassau,NPL Site,40.737337,-73.657844,36059
Lehigh Valley Railroad,50.0,New York,Genesee,NPL Site,42.99202800000001,-77.933306,36037
Computer Circuits,50.0,New York,Suffolk,NPL Site,40.813194,-73.24611,36103
Mohonk Road Industrial Plant,50.0,New York,Ulster,NPL Site,41.816667,-74.13444,36111
Smithtown Ground Water Contamination,50.0,New York,Suffolk,NPL Site,40.887806,-73.174778,36103
Stanton Cleaners Area Ground Water Contamination,35.76,New York,Nassau,NPL Site,40.782361,-73.734139,36059
"Lawrence Aviation Industries, Inc.",50.0,New York,Suffolk,NPL Site,40.928139,-73.069194,36103
Old Roosevelt Field Contaminated Ground Water Area,50.0,New York,Nassau,NPL Site,40.733611,-73.618472,36059
American Crossarm & Conduit Co.,30.44,Washington,Lewis,NPL Site,46.656939,-122.9689,53041
"Crater Resources, Inc./Keystone Coke Co./Alan Wood Steel Co.",50.0,Pennsylvania,Montgomery,NPL Site,40.081667,-75.3425,42091
Gilt Edge Mine,50.0,South Dakota,Lawrence,NPL Site,44.328056,-103.674306,46081
"MacKenzie Chemical Works, Inc.",50.0,New York,Suffolk,NPL Site,40.78888900000001,-73.205278,36103
Landfill & Development Co.,33.62,New Jersey,Burlington,NPL Site,39.980561,-74.770839,34005
Wasatch Chemical Co. (Lot 6),49.91,Utah,Salt Lake,NPL Site,40.7226,-111.8747,49035
Nascolite Corp.,51.13,New Jersey,Cumberland,NPL Site,39.422219,-75.032781,34011
"Crown Cleaners of Watertown, Inc.",49.0,New York,Jefferson,NPL Site,44.022944,-75.651861,36045
Centralia Municipal Landfill,36.36,Washington,Lewis,NPL Site,46.696669,-122.9633,53041
Foote Mineral Co.,50.0,Pennsylvania,Chester,NPL Site,40.04,-75.585278,42029
Monticello Mill Tailings (USDOE),35.86,Utah,San Juan,NPL Site,37.863331,-109.3483,49037
North Market Street,32.61,Washington,Spokane,NPL Site,47.7297,-117.3626,53063
Utah Power & Light/American Barrel Co.,37.93,Utah,Salt Lake,NPL Site,40.7704,-111.9055,49035
Cayuga County Ground Water Contamination,50.0,New York,Cayuga,NPL Site,42.880556,-76.6425,36011
"Radiation Technology, Inc.",42.56,New Jersey,Morris,NPL Site,40.970831,-74.50555,34027
Pasco Sanitary Landfill,44.46,Washington,Franklin,NPL Site,46.255281,-119.0478,53021
Shieldalloy Corp.,58.75,New Jersey,Gloucester,NPL Site,39.543061,-75.02221899999998,34015
Hanford 300-Area (USDOE),65.23,Washington,Benton,NPL Site,46.3703,-119.2752,53005
Murray-Ohio Dump,46.44,Tennessee,Lawrence,NPL Site,35.2275,-87.361111,47099
Diaz Chemical Corporation,50.0,New York,Orleans,NPL Site,43.222944,-78.029278,36073
UGI Columbia Gas Plant,50.78,Pennsylvania,Lancaster,NPL Site,40.026207,-76.498389,42071
Velsicol Chemical Corp. (Hardeman County),47.71,Tennessee,Hardeman,NPL Site,35.381939,-88.926389,47069
Navy Ships Parts Control Center,50.0,Pennsylvania,Cumberland,NPL Site,40.223888,-76.99361,42041
Peninsula Boulevard Ground Water Plume,50.0,New York,Nassau,NPL Site,40.642806,-73.706417,36059
Hanford 100-Area (USDOE),46.38,Washington,Benton,NPL Site,46.7011,-119.4829,53005
Hanford 200-Area (USDOE),69.05,Washington,Benton,NPL Site,46.563331,-119.6049,53005
Hopewell Precision Area Contamination,50.0,New York,Dutchess,NPL Site,41.6116,-73.781481,36027
Milan Army Ammunition Plant,58.15,Tennessee,Carroll,NPL Site,35.867781,-88.696111,47017
Woodland Route 532 Dump,34.98,New Jersey,Burlington,NPL Site,39.829169,-74.492231,34005
Butler Mine Tunnel,49.51,Pennsylvania,Luzerne,NPL Site,41.3268,-75.7899,42079
"American Creosote Works, Inc. (Jackson Plant)",35.22,Tennessee,Madison,NPL Site,35.61,-88.8355,47113
Jacobs Smelter,50.0,Utah,Tooele,NPL Site,40.454167,-112.358333,49045
General Electric Co. (Spokane Shop),57.8,Washington,Spokane,NPL Site,47.6729,-117.3441,53063
Willow Grove Naval Air and Air Reserve Station,50.0,Pennsylvania,Montgomery,NPL Site,40.19222,-75.1475,42091
"Vineland Chemical Co., Inc.",59.16,New Jersey,Cumberland,NPL Site,39.510281,-75.056661,34011
Mallory Capacitor Co.,29.44,Tennessee,Wayne,NPL Site,35.317638,-87.758611,47181
Gowanus Canal,50.0,New York,Kings,NPL Site,40.681639,-73.98733299999998,36047
Newtown Creek,50.0,New York,Kings,NPL Site,40.715192,-73.930762,36047
Bountiful/Woods Cross 5th South PCE Plume,50.0,Utah,Davis,NPL Site,40.887222,-111.903889,49011
Fort Lewis Logistics Center,35.48,Washington,Pierce,NPL Site,47.1142,-122.5365,53053
Arlington Blending & Packaging,39.03,Tennessee,Shelby,NPL Site,35.2996,-89.6577,47157
Black River PCBs,48.03,New York,Jefferson,NPL Site,43.984269,-75.627753,36045
"Breslube-Penn, Inc",50.0,Pennsylvania,Allegheny,NPL Site,40.501389,-80.146389,42003
Wrigley Charcoal Plant,36.14,Tennessee,Hickman,NPL Site,35.9025,-87.35319399999999,47081
Bangor Naval Submarine Base,55.91,Washington,Kitsap,NPL Site,47.699,-122.7131,53035
Carrier Air Conditioning Co.,48.91,Tennessee,Shelby,NPL Site,35.043331,-89.690411,47157
Dewey Loeffel Landfill,50.0,New York,Rensselaer,NPL Site,42.560957,-73.560496,36083
Salford Quarry,50.0,Pennsylvania,Montgomery,NPL Site,40.251944,-75.382222,42091
Oak Ridge Reservation (USDOE),51.13,Tennessee,Anderson,NPL Site,35.924719,-84.390139,47001
Memphis Defense Depot (DLA),58.06,Tennessee,Shelby,NPL Site,35.093333,-90.003333,47157
Ross Metals Inc.,37.65,Tennessee,Fayette,NPL Site,35.049167,-89.548611,47047
Smalley-Piper,50.0,Tennessee,Shelby,NPL Site,35.044444,-89.685833,47157
Smokey Mountain Smelters,50.0,Tennessee,Knox,NPL Site,35.919444,-83.925833,47093
Alamo Contaminated Ground Water,50.0,Tennessee,Crockett,NPL Site,35.784153,-89.118022,47033
Clinch River Corporation,48.03,Tennessee,Roane,NPL Site,35.93195,-84.539381,47145
"Walker Machine Products, Inc.",50.0,Tennessee,Shelby,NPL Site,35.041589,-89.653469,47157
Former Custom Cleaners,50.0,Tennessee,Shelby,NPL Site,35.115114,-89.945,47157
Southside Chattanooga Lead,50.0,Tennessee,Hamilton,NPL Site,35.032552,-85.30055899999998,47065
Crystal Chemical Co.,60.9,Texas,Harris,NPL Site,29.7206,-95.5644,48201
"French, Ltd.",63.33,Texas,Harris,NPL Site,29.8796,-95.0739,48201
Highlands Acid Pit,37.77,Texas,Harris,NPL Site,29.8141,-95.0786,48201
"Motco, Inc.",0.0,Texas,Galveston,NPL Site,29.334719,-94.933331,48167
Sikes Disposal Pits,61.62,Texas,Harris,NPL Site,29.881669,-95.086669,48201
United Creosoting Co.,37.29,Texas,Montgomery,NPL Site,30.331669,-95.456669,48339
Geneva Industries/Fuhrmann Energy,59.46,Texas,Harris,NPL Site,29.66,-95.25,48201
Odessa Chromium #1,42.24,Texas,Ector,NPL Site,31.881669,-102.4033,48135
"Koppers Co., Inc. (Texarkana Plant)",31.31,Texas,Bowie,NPL Site,33.416669,-94.065,48037
Sol Lynn/Industrial Transformers,39.65,Texas,Harris,NPL Site,29.678889,-95.398611,48201
"Petro-Chemical Systems, Inc. (Turtle Bayou)",29.94,Texas,Liberty,NPL Site,29.92,-94.688061,48291
North Cavalcade Street,37.08,Texas,Harris,NPL Site,29.806669,-95.349169,48201
South Cavalcade Street,38.69,Texas,Harris,NPL Site,29.798331,-95.347781,48201
Lone Star Army Ammunition Plant,31.85,Texas,Bowie,NPL Site,33.4344,-94.2483,48037
Longhorn Army Ammunition Plant,39.83,Texas,Harris,NPL Site,32.665,-94.123339,48201
Texarkana Wood Preserving Co.,40.19,Texas,Bowie,NPL Site,33.408331,-94.053339,48037
Sheridan Disposal Services,30.16,Texas,Waller,NPL Site,30.2074,-96.1357,48473
Pantex Plant (USDOE),51.22,Texas,Carson,NPL Site,35.321944,-101.563611,48065
RSR Corp.,50.0,Texas,Dallas,NPL Site,32.776944,-96.8725,48113
ALCOA (Point Comfort)/Lavaca Bay,50.0,Texas,Calhoun,NPL Site,28.650833,-96.562222,48057
Tex-Tin Corp.,50.0,Texas,Galveston,NPL Site,29.356667,-94.941667,48167
Sprague Road Ground Water Plume,43.21,Texas,Ector,NPL Site,31.918611,-102.428333,48135
Jasper Creosoting Company Inc.,50.0,Texas,Jasper,NPL Site,30.933889,-93.9825,48241
Rockwool Industries Inc.,48.0,Texas,Bell,NPL Site,31.051667,-97.438056,48027
City of Perryton Well No. 2,50.0,Texas,Ochiltree,NPL Site,36.400556,-100.804722,48357
"Many Diversified Interests, Inc.",32.07,Texas,Harris,NPL Site,29.767778000000003,-95.331667,48201
Hart Creosoting Company,48.0,Texas,Jasper,NPL Site,30.893611,-93.995278,48241
Star Lake Canal,50.0,Texas,Jefferson,NPL Site,29.975,-93.917,48245
Garland Creosoting,49.1,Texas,Gregg,NPL Site,32.442272,-94.710903,48183
State Road 114 Ground Water Plume,42.41,Texas,Hockley,NPL Site,33.599883,-102.405561,48219
"Malone Service Company, Inc.",50.0,Texas,Galveston,NPL Site,29.333056,-94.902778,48167
Patrick Bayou,47.83,Texas,Harris,NPL Site,29.731944,-95.114583,48201
Brine Service Company,50.0,Texas,Nueces,NPL Site,27.815372,-97.508606,48355
Gulfco Marine Maintenance,50.0,Texas,Brazoria,NPL Site,28.966847,-95.289656,48039
Falcon Refinery,50.0,Texas,San Patricio,NPL Site,27.860725,-97.179306,48409
Jones Road Ground Water Plume,46.5,Texas,Harris,NPL Site,29.90465,-95.584319,48201
Conroe Creosoting Company,48.0,Texas,Montgomery,NPL Site,30.318744,-95.435428,48339
Air Force Plant #4 (General Dynamics),39.92,Texas,Tarrant,NPL Site,32.777781,-97.45,48439
Sandy Beach Road Ground Water Plume,50.0,Texas,Tarrant,NPL Site,32.928472,-97.525,48439
East 67th Street Ground Water Plume,50.0,Texas,Ector,NPL Site,31.908611,-102.385833,48135
Bandera Road Ground Water Plume,50.0,Texas,Bexar,NPL Site,29.494433,-98.6205,48029
Donna Reservoir and Canal System,50.0,Texas,Hidalgo,NPL Site,26.112286,-98.086469,48215
Midessa Ground Water Plume,50.0,Texas,Midland,NPL Site,31.90635,-102.233669,48329
San Jacinto River Waste Pits,50.0,Texas,Harris,NPL Site,29.7944,-95.0625,48201
North East 2nd Street (formerly Attebury Grain Storage Facility),32.33,Texas,Swisher,NPL Site,34.745,-101.853333,48437
Van der Horst USA Corporation,48.0,Texas,Kaufman,NPL Site,32.734167,-96.273889,48257
West County Road 112 Ground Water,50.0,Texas,Midland,NPL Site,31.964129,-102.094921,48329
US Oil Recovery,50.0,Texas,Harris,NPL Site,29.718389,-95.221528,48201
Circle Court Ground Water Plume,50.0,Texas,Parker,NPL Site,32.744778000000004,-97.679763,48367
Main Street Ground Water Plume,50.0,Texas,Burnet,NPL Site,30.737148,-98.22544,48053
"Eldorado Chemical Co., Inc.",38.85,Texas,Bexar,NPL Site,29.568833,-98.350042,48029
Highway 18 Ground Water,50.0,Texas,Winkler,NPL Site,31.852,-103.090681,48495
"Lane Plating Works, Inc.",50.0,Texas,Dallas,NPL Site,32.687886,-96.769485,48113
River City Metal Finishing,50.0,Texas,Bexar,NPL Site,29.430489,-98.731875,48029
Delfasco Forge,50.0,Texas,Dallas,NPL Site,32.750269,-96.963228,48113
Portland Cement (Kiln Dust 2 & 3),54.4,Utah,Salt Lake,NPL Site,40.7474,-111.9436,49035
Hill Air Force Base,49.94,Utah,Davis,NPL Site,41.128331,-111.955,49011
Ogden Defense Depot (DLA),45.1,Utah,Weber,NPL Site,41.266669,-112.0,49057
Five Points PCE Plume,50.0,Utah,Davis,NPL Site,40.874583,-111.887028,49011
Sharon Steel Corp (Farrell Works Disposal Area) ,50.0,Pennsylvania,Mercer,NPL Site,41.198611,-80.510278,42085
New Cassel/Hicksville Ground Water Contamination,50.0,New York,Nassau,NPL Site,40.752446,-73.559781,36059
U.S. Magnesium,59.18,Utah,Tooele,NPL Site,40.914993,-112.719949,49045
Eighteenmile Creek,50.0,New York,Niagara,NPL Site,43.1813,-78.689544,36063
Old Wilmington Road Ground Water Contamination,50.0,Pennsylvania,Chester,NPL Site,39.99583300000001,-75.908333,42029
Moses Lake Wellfield Contamination,50.0,Washington,Grant,NPL Site,47.204722,-119.315556,53025
700 South 1600 East PCE Plume,50.0,Utah,Salt Lake,NPL Site,40.753938,-111.848022,49035
Wolff-Alport Chemical Company,50.0,New York,Queens,NPL Site,40.692672,-73.901997,36081
Ventron/Velsicol,51.38,New Jersey,Bergen,NPL Site,40.84,-74.07943900000002,34003
Chisman Creek,47.19,Virginia,York,NPL Site,37.177,-76.4631,51199
Wappinger Creek,50.0,New York,Dutchess,NPL Site,41.597684,-73.927136,36027
Lower Darby Creek Area,50.0,Pennsylvania,Delaware,NPL Site,39.885556,-75.267778,42045
Saltville Waste Disposal Ponds,29.52,Virginia,Smyth,NPL Site,36.883339,-81.783331,51173
Valmont TCE,43.16,Pennsylvania,Luzerne,NPL Site,40.967778,-76.015556,42079
Watson Johnson Landfill,70.71,Pennsylvania,Bucks,NPL Site,40.460139,-75.331861,42017
Franklin Slag Pile (MDC),50.2,Pennsylvania,Philadelphia,NPL Site,39.983194,-75.083889,42101
Letterkenny Army Depot (PDO Area),37.51,Pennsylvania,Franklin,NPL Site,40.0075,-77.64,42055
Paoli Rail Yard,32.18,Pennsylvania,Chester,NPL Site,40.043189,-75.492919,42029
Ryeland Road Arsenic,60.3,Pennsylvania,Berks,NPL Site,40.35395,-76.175361,42011
Saint-Gobain Performance Plastics,50.0,New York,Rensselaer,NPL Site,42.8943,-73.3566,36083
Price Battery,37.86,Pennsylvania,Berks,NPL Site,40.549507,-75.980228,42011
Safety Light Corporation,70.71,Pennsylvania,Columbia,NPL Site,41.015278,-76.376389,42037
Jackson Ceramix,30.22,Pennsylvania,Jefferson,NPL Site,41.139167,-78.80194399999998,42065
Chem-Fab,50.0,Pennsylvania,Bucks,NPL Site,40.315958,-75.136003,42017
BoRit Asbestos,50.0,Pennsylvania,Montgomery,NPL Site,40.153472,-75.228625,42091
Metro Container Corporation,50.0,Pennsylvania,Delaware,NPL Site,39.824981,-75.399047,42045
Baghurst Drive,50.0,Pennsylvania,Montgomery,NPL Site,40.299483,-75.45513299999998,42091
Juncos Landfill,32.57,Puerto Rico,Juncos,NPL Site,18.2232,-65.9087,72077
Vega Alta Public Supply Wells,42.24,Puerto Rico,Vega Alta,NPL Site,18.418061,-66.330281,72143
Upjohn Facility,41.92,Puerto Rico,Barceloneta,NPL Site,18.4292,-66.5901,72017
Fibers Public Supply Wells,35.34,Puerto Rico,Guayama,NPL Site,17.9632,-66.1461,72057
Vega Baja Solid Waste Disposal,50.37,Puerto Rico,Vega Baja,NPL Site,18.434306,-66.38972199999999,72145
"Scorpio Recycling, Inc.",50.0,Puerto Rico,Toa Baja,NPL Site,18.409167,-66.231944,72137
Pesticide Warehouse III,50.0,Puerto Rico,Manati,NPL Site,18.429139000000006,-66.458,72091
Cidra Ground Water Contamination,50.0,Puerto Rico,Cidra,NPL Site,18.175277,-66.16194399999999,72041
Atlantic Fleet Weapons Training Area - Vieques,0.0,Puerto Rico,Vieques,NPL Site,18.13058,-65.3106,72147
Pesticide Warehouse I,50.0,Puerto Rico,Arecibo,NPL Site,18.435556,-66.6,72013
Maunabo Area Ground Water Contamination,50.0,Puerto Rico,Maunabo,NPL Site,18.005611,-65.90141700000001,72095
San German Ground Water Contamination,50.0,Puerto Rico,San German,NPL Site,18.084472,-67.035306,72125
"Papelera Puertorriquena, Inc.",34.69,Puerto Rico,Utuado,NPL Site,18.265194,-66.694908,72141
Cabo Rojo Ground Water Contamination,50.0,Puerto Rico,Cabo Rojo,NPL Site,18.090725,-67.148325,72023
Hormigas Ground Water Plume,50.0,Puerto Rico,Caguas,NPL Site,18.2206,-66.101,72025
Corozal Well,50.0,Puerto Rico,Corozal,NPL Site,18.295711,-66.286206,72047
Dorado Ground Water Contamination,50.0,Puerto Rico,Dorado,NPL Site,18.42975602,-66.27832042,72051
The Battery Recycling Company,56.66,Puerto Rico,Arecibo,NPL Site,18.453603,-66.694097,72013
Davis Liquid Waste,47.25,Rhode Island,Providence,NPL Site,41.922219,-71.57776899999998,44007
"Stamina Mills, Inc.",34.07,Rhode Island,Providence,NPL Site,41.9964,-71.5647,44007
"Landfill & Resource Recovery, Inc. (L&RR)",49.58,Rhode Island,Providence,NPL Site,41.9795,-71.589,44007
"Peterson/Puritan, Inc.",40.1,Rhode Island,Providence,NPL Site,41.929581,-71.4268,44007
Picillo Farm,0.0,Rhode Island,Kent,NPL Site,41.671669,-71.70916899999997,44003
Western Sand & Gravel,51.35,Rhode Island,Providence,NPL Site,41.9727,-71.595,44007
Central Landfill,46.71,Rhode Island,Providence,NPL Site,41.808331,-71.534719,44007
Rose Hill Regional Landfill,38.11,Rhode Island,Washington,NPL Site,41.470831,-71.49166899999999,44009
Davisville Naval Construction Battalion Center,34.52,Rhode Island,Washington,NPL Site,41.6095,-71.47421999999997,44009
Newport Naval Education/Training Center,32.25,Rhode Island,Newport,NPL Site,41.56445,-71.29346899999999,44005
West Kingston Town Dump/URI Disposal Area,50.0,Rhode Island,Washington,NPL Site,41.496667,-71.535278,44009
Centredale Manor Restoration Project,70.71,Rhode Island,Providence,NPL Site,41.857667,-71.48725,44007
"Carolawn, Inc.",32.04,South Carolina,Chester,NPL Site,34.686111,-80.94305,45023
SCRDI Bluff Road,0.0,South Carolina,Richland,NPL Site,33.885419,-80.90875,45079
SCRDI Dixiana,40.7,South Carolina,Lexington,NPL Site,33.90445,-81.063889,45063
"Leonard Chemical Co., Inc.",47.1,South Carolina,York,NPL Site,34.851669,-80.904169,45091
Kalama Specialty Chemicals,57.9,South Carolina,Beaufort,NPL Site,32.4734,-80.7401,45013
Palmetto Wood Preserving,38.43,South Carolina,Lexington,NPL Site,33.920831,-81.060281,45063
"Wamchem, Inc.",47.7,South Carolina,Beaufort,NPL Site,32.497219,-80.74166899999999,45013
Medley Farm Drum Dump,31.58,South Carolina,Cherokee,NPL Site,34.9805,-81.6685,45021
"Sangamo Weston, Inc./Twelve-Mile Creek/Lake Hartwell PCB Contamination",37.63,South Carolina,Pickens,NPL Site,34.895,-82.7232,45077
Rock Hill Chemical Co.,40.29,South Carolina,York,NPL Site,34.9661,-80.9985,45091
Helena Chemical Co. Landfill,33.89,South Carolina,Allendale,NPL Site,32.9412,-81.23899999999998,45005
"Para-Chem Southern, Inc.",32.94,South Carolina,Greenville,NPL Site,34.7134,-82.23299999999998,45045
Lexington County Landfill Area,37.93,South Carolina,Lexington,NPL Site,33.919581,-81.074169,45063
Elmore Waste Disposal,31.45,South Carolina,Spartanburg,NPL Site,34.935905,-82.216599,45083
Townsend Saw Chain Co.,35.94,South Carolina,Richland,NPL Site,34.10625,-80.83416899999997,45079
Beaunit Corp. (Circular Knit & Dye),32.44,South Carolina,Greenville,NPL Site,34.698061,-82.216111,45045
Savannah River Site (USDOE),47.7,South Carolina,Aiken,NPL Site,33.348889,-81.73778100000001,45003
"Koppers Co., Inc. (Charleston Plant)",50.0,South Carolina,Charleston,NPL Site,32.822083,-79.958333,45019
Aqua-Tech Environmental Inc. (Groce Laboratories),50.0,South Carolina,Spartanburg,NPL Site,34.9328,-82.1725,45083
Parris Island Marine Corps Recruit Depot,50.0,South Carolina,Beaufort,NPL Site,32.3528,-80.7031,45013
Shuron Inc.,68.26,South Carolina,Barnwell,NPL Site,33.236694,-81.375778,45011
Macalloy Corporation,50.0,South Carolina,Charleston,NPL Site,32.838056,-79.951194,45019
Brewer Gold Mine,50.0,South Carolina,Chester,NPL Site,34.652194,-80.411472,45023
Barite Hill/Nevada Goldfields,50.0,South Carolina,McCormick,NPL Site,33.873090000000005,-82.30067,45065
US Finishing/Cone Mills,50.0,South Carolina,Greenville,NPL Site,34.883292,-82.426303,45045
Burlington Industries Cheraw,48.0,South Carolina,Chester,NPL Site,34.698689,-79.912786,45023
Ellsworth Air Force Base,33.62,South Dakota,Meade,NPL Site,44.148061,-103.0958,46093
U.S. Titanium,34.78,Virginia,Nelson,NPL Site,37.708331,-79.016669,51125
Pacific Sound Resources,70.71,Washington,King,NPL Site,47.582332,-122.366667,53033
Puget Sound Naval Shipyard Complex,50.0,Washington,Kitsap,NPL Site,47.559166,-122.647222,53035
"Avtex Fibers, Inc.",35.39,Virginia,Warren,NPL Site,38.925561,-78.211669,51187
Magna Metals,50.0,New York,Westchester,NPL Site,41.2745,-73.8704,36119
Jackson Park Housing Complex (USNAVY),50.0,Washington,Kitsap,NPL Site,47.58861,-122.695972,53035
Arsenic Mine,0.0,New York,Putnam,NPL Site,41.457972,-73.715285,36079
L.A. Clarke & Son,34.24,Virginia,Spotsylvania,NPL Site,38.236111,-77.4325,51177
Allied Chemical & Ironton Coke,47.05,Ohio,Lawrence,NPL Site,38.5057,-82.65799999999999,39087
Defense General Supply Center (DLA),33.85,Virginia,Chesterfield,NPL Site,37.4189,-77.4485,51041
Old Navy Dump/Manchester Laboratory (USEPA/NOAA),50.0,Washington,Kitsap,NPL Site,47.574443,-122.548055,53035
Big D Campground,30.77,Ohio,Ashtabula,NPL Site,41.904169,-80.652781,39007
Cinnaminson Township (Block 702) Ground Water Contamination,37.93,New Jersey,Burlington,NPL Site,40.0175,-74.9862,34005
First Piedmont Corp. Rock Quarry (Route 719),30.16,Virginia,Pittsylvania,NPL Site,36.665831,-79.348611,51143
Fried Industries,33.61,New Jersey,Middlesex,NPL Site,40.4424,-74.4412,34023
"Atlantic Wood Industries, Inc.",37.14,Virginia,Portsmouth City,NPL Site,36.8065,-76.29899999999998,51740
"Waldick Aerospace Devices, Inc.",44.86,New Jersey,Monmouth,NPL Site,40.143,-74.0613,34025
Naval Weapons Station Earle (Site A),29.65,New Jersey,Monmouth,NPL Site,40.264581,-74.16291899999997,34025
Naval Air Engineering Center,50.53,New Jersey,Ocean,NPL Site,40.029719,-74.369161,34029
Boomsnub/Airco,0.0,Washington,Clark,NPL Site,45.677222,-122.621667,53011
"Monitor Devices, Inc./Intercircuits, Inc.",41.93,New Jersey,Monmouth,NPL Site,40.185281,-74.11971899999998,34025
Dayco Corp./L.E. Carpenter Co.,46.13,New Jersey,Morris,NPL Site,40.903331,-74.5775,34027
Cosden Chemical Coatings Corp.,33.86,New Jersey,Burlington,NPL Site,40.058183,-74.925899,34005
"Curcio Scrap Metal, Inc.",34.37,New Jersey,Bergen,NPL Site,40.8907,-74.1035,34003
Brook Industrial Park,58.12,New Jersey,Somerset,NPL Site,40.560139,-74.536111,34035
Pohatcong Valley Ground Water Contamination,28.9,New Jersey,Warren,NPL Site,40.75,-75.0,34041
"Kauffman & Minteer, Inc.",28.51,New Jersey,Burlington,NPL Site,40.0363,-74.694,34005
Picatinny Arsenal (USARMY),42.92,New Jersey,Morris,NPL Site,40.916669,-74.583339,34027
South Jersey Clothing Co.,42.24,New Jersey,Atlantic,NPL Site,39.5206,-74.9491,34001
Higgins Disposal,30.87,New Jersey,Somerset,NPL Site,40.3875,-74.61528100000002,34035
Higgins Farm,30.47,New Jersey,Somerset,NPL Site,40.406389,-74.60278100000002,34035
Global Sanitary Landfill,45.92,New Jersey,Middlesex,NPL Site,40.446389,-74.286111,34023
Garden State Cleaners Co.,28.9,New Jersey,Atlantic,NPL Site,39.519031,-74.94945,34001
Federal Aviation Administration Technical Center,39.65,New Jersey,Atlantic,NPL Site,39.458331,-74.583339,34001
Chemical Insecticide Corp.,37.93,New Jersey,Middlesex,NPL Site,40.5274,-74.368,34023
White Chemical Corp.,0.0,New Jersey,Essex,NPL Site,40.698484,-74.19824200000002,34013
Horseshoe Road,51.37,New Jersey,Middlesex,NPL Site,40.484722,-74.31944399999998,34023
Franklin Burn,40.67,New Jersey,Gloucester,NPL Site,39.594444,-75.025,34015
Welsbach & General Gas Mantle (Camden Radiation),41.46,New Jersey,Camden,NPL Site,39.919722,-75.121944,34007
"Cornell Dubilier Electronics, Inc.",50.27,New Jersey,Middlesex,NPL Site,40.576389,-74.414167,34023
LCP Chemicals Inc.,50.0,New Jersey,Union,NPL Site,40.6075,-74.210278,34039
Puchack Well Field,50.0,New Jersey,Camden,NPL Site,39.976667,-75.05194399999998,34007
Zschiegner Refining,50.0,New Jersey,Monmouth,NPL Site,40.145833,-74.2,34025
Middlesex Sampling Plant (USDOE),50.0,New Jersey,Middlesex,NPL Site,40.569806,-74.49319399999997,34023
United States Avenue Burn,50.0,New Jersey,Camden,NPL Site,39.834167,-74.963889,34007
Emmell's Septic Landfill,50.0,New Jersey,Atlantic,NPL Site,39.500694,-74.543611,34001
"Martin Aaron, Inc.",50.0,New Jersey,Camden,NPL Site,39.926111,-75.119167,34007
Iceland Coin Laundry Area Ground Water Plume,30.3,New Jersey,Cumberland,NPL Site,39.45725,-75.04725,34011
Lightman Drum Company,42.03,New Jersey,Camden,NPL Site,39.729722,-74.905917,34007
McGuire Air Force Base #1,47.2,New Jersey,Burlington,NPL Site,40.018056,-74.593611,34005
Diamond Head Oil Refinery Div.,30.0,New Jersey,Hudson,NPL Site,40.747222,-74.132194,34017
Quanta Resources,50.0,New Jersey,Bergen,NPL Site,40.804306,-73.98916700000002,34003
Woodbrook Road Dump,50.0,New Jersey,Middlesex,NPL Site,40.561564,-74.402914,34023
Atlantic Resources Corporation,50.0,New Jersey,Middlesex,NPL Site,40.486111,-74.31944399999998,34023
White Swan Cleaners/Sun Cleaners Area Ground Water Contamination,41.63,New Jersey,Monmouth,NPL Site,40.135444,-74.063133,34025
Standard Chlorine,50.0,New Jersey,Hudson,NPL Site,40.75,-74.097222,34017
Rolling Knolls Landfill,58.31,New Jersey,Morris,NPL Site,40.729528,-74.447861,34027
Sherwin-Williams/Hilliards Creek,50.0,New Jersey,Camden,NPL Site,39.835526,-74.964977,34007
"Matteo & Sons, Inc.",50.0,New Jersey,Gloucester,NPL Site,39.854722,-75.168306,34015
Ringwood Mines/Landfill,52.58,New Jersey,Passaic,NPL Site,41.136669,-74.2725,34031
"Curtis Specialty Papers, Inc.",50.0,New Jersey,Hunterdon,NPL Site,40.56175800000001,-75.089842,34019
Raritan Bay Slag,50.0,New Jersey,Middlesex,NPL Site,40.464589,-74.25801700000002,34023
Mansfield Trail Dump,50.0,New Jersey,Sussex,NPL Site,40.9289443,-74.69959990000002,34037
Garfield Ground Water Contamination,0.0,New Jersey,Bergen,NPL Site,40.871858,-74.106431,34003
Orange Valley Regional Ground Water Contamination,50.0,New Jersey,Essex,NPL Site,40.779936,-74.225267,34013
"Matlack, Inc.",45.54,New Jersey,Gloucester,NPL Site,39.763106,-75.32216899999997,34015
Riverside Industrial Park,50.0,New Jersey,Essex,NPL Site,40.765722,-74.159084,34013
Pierson's Creek,47.99,New Jersey,Essex,NPL Site,40.7163,-74.1452,34013
Unimatic Manufacturing Corporation,50.0,New Jersey,Essex,NPL Site,40.878792,-74.269155,34013
Former Kil-Tone Company,65.29,New Jersey,Cumberland,NPL Site,39.47841,-75.02548900000002,34011
Homestake Mining Co.,34.21,New Mexico,Cibola,NPL Site,35.243331,-107.8633,35006
South Valley,0.0,New Mexico,Bernalillo,NPL Site,35.0441,-106.6411,35001
United Nuclear Corp.,30.36,New Mexico,McKinley,NPL Site,35.643331,-108.5,35031
